ADM_RATE,AGE_ENTRY,AVGFACSAL,CITY,CONTROL,COSTT4_A,COSTT4_P,ENDOWBEGIN,FEMALE,FIRST_GEN,G12MN,GRAD_DEBT_MDN,GRADS,ICLEVEL,INSTNM,INSTURL,LATITUDE,LONGITUDE,LOCALE2,MD_EARN_WNE_P10,MN_EARN_WNE_P10,NPCURL,OPEID,PCIP14,PCIP27,PCT_ASIAN,PCT_BLACK,PCT_HISPANIC,PCT_WHITE,PCTPELL,PFTFAC,PREDDEG,REGION,RELAFFIL,SAT_AVG,SCH_DEG,STABBR,UG12MN,UGDS,UGDS_MEN,UGDS_WOMEN,UNITID,ZIP
0.716,20.283741368,8779,Normal,1,21924,NA,NA,0.5640301318,0.3658280922,1099,31000,862,1,Alabama A & M University,www.aamu.edu/,34.783368,-86.568502,NA,39059,35500,www.aamu.edu/admissions-aid/tuition-fees/net-price-calculator.html,00100200,0.121,0.0089,1.4800000190734801,47.9799995422363,3.78999996185302,46.8400001525878,0.6853,0.6833,3,5,NA,954,3,AL,5529,5098,0.406,0.594,100654,35762
0.8854,23.60797466,11590,Birmingham,1,26248,NA,539858544,0.6390907397,0.341223671,10652,22300,8742,1,University of Alabama at Birmingham,https://www.uab.edu/,33.505697,-86.799345,NA,50907,48400,https://tcc.ruffalonl.com/University of Alabama at Birmingham/Freshman-Students,00105200,0.0559,0.0111,1.10000002384185,27.7600002288818,2.02999997138977,69.0199966430664,0.3253,0.7564,3,5,NA,1266,3,AL,15675,13284,0.379,0.621,100663,35294-0110
NA,33.672297297,4672,Montgomery,2,NA,NA,174818,0.6486486486,0.5125,714,32189,472,1,Amridge University,https://www.amridgeuniversity.edu/,32.362609,-86.17401,NA,37730,47600,https://www2.amridgeuniversity.edu:9091/,02503400,0,0,1.28999996185302,22.5300006866455,6.94000005722046,70.8799972534179,0.7852,0.7872,3,5,74,NA,3,AL,373,251,0.3147,0.6853,100690,36117-3553
0.7367,22.727919632,9820,Huntsville,1,24869,NA,75837207,0.4763499372,0.3101321586,2432,20705,2067,1,University of Alabama in Huntsville,www.uah.edu/,34.724557,-86.640449,NA,56901,52000,finaid.uah.edu/,00105500,0.3028,0.0091,1.41999995708465,18.9799995422363,2.54999995231628,76.3799972534179,0.2377,0.6538,3,5,NA,1300,3,AL,8886,7358,0.5953,0.4047,100706,35899
0.9799,20.130990415,7701,Montgomery,1,21938,NA,111315175,0.6134185304,0.3434343434,564,31000,465,1,Alabama State University,www.alasu.edu/,32.364317,-86.295677,NA,34018,30600,www.alasu.edu/cost-aid/tuition-costs/net-price-calculator,00100500,0.0138,0.0138,1.40999996662139,52.3199996948242,4.09000015258789,42.6899986267089,0.7205,0.6812,3,5,NA,955,3,AL,3914,3495,0.3505,0.6495,100724,36104-0271
0.789,21.137701396,10509,Tuscaloosa,1,31050,NA,939393269,0.6152524168,0.2257126887,7381,22750,6631,1,The University of Alabama,www.ua.edu/,33.211875,-87.545978,NA,56118,51600,financialaid.ua.edu/net-price-calculator/,00105100,0.1198,0.0088,1.20000004768371,21.0599994659423,2.41000008583068,75.3499984741211,0.1712,0.7753,3,5,NA,1244,3,AL,34611,30725,0.4385,0.5615,100751,35487-0100
NA,30.384765625,8834,Athens,1,NA,NA,4496491,0.705078125,0.4774964838,271,18051,235,1,Athens State University,www.athens.edu/,34.806793,-86.964698,NA,45311,42400,www.athens.edu/financial-aid/net-price-calculator/,00100800,0,0.0174,0.64999997615814,12.2600002288818,2.40000009536743,83.8899993896484,0.4036,0.4554,3,5,NA,NA,3,AL,3521,2511,0.2951,0.7049,100812,35611
0.968,22.199804114,7885,Montgomery,1,20621,NA,52113787,0.6929480901,0.38189609,1087,25000,982,1,Auburn University at Montgomery,www.aum.edu/,32.36736,-86.177544,NA,43743,38000,www.aum.edu/current-students/financial-information/net-price-calculator,00831000,0,0.0069,0.91000002622604,37.2099990844726,1.62000000476837,59.9700012207031,0.4821,0.6901,3,5,NA,1069,3,AL,5054,3742,0.3314,0.6686,100830,36117-3596
0.7118,20.516795866,11093,Auburn,1,32678,NA,784621493,0.531504671,0.1726471191,7118,21000,6595,1,Auburn University,www.auburn.edu/,32.599378,-85.488258,NA,61042,56300,https://www.auburn.edu/admissions/costcalc/freshman.html,00100900,0.1897,0.0068,1.64999997615814,19.7999992370605,2.89000010490417,75.9000015258789,0.1301,0.8436,3,5,NA,NA,3,AL,26057,24782,0.5047,0.4953,100858,36849
0.6591,19.64479638,7636,Birmingham,2,33920,NA,49403369,0.520361991,0.1724941725,NA,25000,NA,1,Birmingham-Southern College,www.bsc.edu/,33.513774,-86.850552,NA,55236,53100,www.bsc.edu/fp/np-calculator.cfm,00101200,0.0077,0.0421,1.38999998569488,17.4099998474121,2.46000003814697,78.9000015258789,0.2152,0.8295,3,5,71,1214,3,AL,1192,1048,0.4895,0.5105,100937,35254
NA,30.001843187,5061,Montgomery,3,23107,NA,NA,0.7628668652,0.4722883373,92,26123,54,1,South University-Montgomery,www.southuniversity.edu/,32.342684,-86.216488,NA,35237,40200,www.southuniversity.edu/montgomery/net-price-calculator,01303906,0,0,1.74000000953674,28.5599994659423,6.6100001335144,65.2200012207031,0.5536,0.1731,3,5,NA,NA,3,AL,512,337,0.1543,0.8457,101116,36116
0.646,28.260475651,6271,Montgomery,2,36457,NA,17838794,0.6387315968,0.4300319489,1126,23000,952,1,Faulkner University,www.faulkner.edu/,32.384181,-86.21641,NA,41523,40700,www.faulkner.edu/net-price-calculator/,00100300,0,0.0128,1.04999995231628,31.8899993896484,1.80999994277954,64.8799972534179,0.461,0.5511,3,5,74,1042,3,AL,2544,1696,0.4287,0.5713,101189,36109-3390
0.9385,31.289940828,6644,Birmingham,2,31202,NA,NA,0.8135465189,0.5209032652,19,21500,7,1,Herzing University-Birmingham,https://www.herzing.edu/,33.468466,-86.832465,NA,34238,41600,https://www.herzing.edu/tuition-financial-aid/net-price-calculator,00962107,0,0,1.89999997615814,11.6300001144409,5.6100001335144,81.8399963378906,0.6748,0.5161,1,5,NA,NA,2,AL,1196,608,0.2336,0.7664,101365,35209
0.693,23.017751479,7133,Montgomery,2,39177,NA,51910937,0.4704142012,0.3456,4,27000,5,1,Huntingdon College,www.huntingdon.edu/,32.351034,-86.284366,NA,47328,43600,www.huntingdon.edu/admission-aid/student-financial-services/net-price-calculator/,00101900,0,0.0082,0.93000000715255,23.6700000762939,1.90999996662139,73.1999969482422,0.3946,0.7975,3,5,71,1111,3,AL,991,838,0.5513,0.4487,101435,36106-2148
0.7634,22.62058319,7499,Jacksonville,1,22023,NA,13976189,0.5886792453,0.3637702504,1848,22189,1473,1,Jacksonville State University,www.jsu.edu/,33.822938,-85.765321,NA,41504,38100,www.jsu.edu/finaid/,00102000,0,0.0089,0.6700000166893,19.7000007629394,2.66000008583068,76.9599990844726,0.4109,0.6823,3,5,NA,1030,3,AL,8904,6992,0.3923,0.6077,101480,36265
0.7433,22.259482759,6730,Livingston,1,22525,NA,428958,0.5577586207,0.403210576,5811,24944,3272,1,University of West Alabama,www.uwa.edu/,32.588132,-88.186329,NA,38617,40400,secure.uwa.edu/calculator/,00102400,0,0.013,0.40000000596046,42.4799995422363,1.71000003814697,55.4900016784668,0.5294,0.4596,3,5,NA,1017,3,AL,2900,2310,0.3043,0.6957,101587,35470
NA,21.322740113,4917,Fairfield,2,22857,NA,24402543,0.4668079096,0.4164588529,NA,31217,NA,1,Miles College,www.miles.edu/,33.482442,-86.908751,NA,30847,29500,https://miles.studentaidcalculator.com/survey.aspx,00102800,0,0.0098,0.93999999761581,60.7200012207031,2.81999993324279,35.8800010681152,0.7826,0.6964,3,5,55,NA,3,AL,1649,1517,0.4661,0.5339,101675,35064-2621
0.6409,23.917989418,5411,Mobile,2,37823,NA,17265742,0.6732804233,0.3242857143,290,26500,257,1,University of Mobile,www.umobile.edu/,30.793247,-88.128934,NA,43640,38700,umobile.edu/financial-aid/cost-calculator/,00102900,0,0.0042,1.02999997138977,25.1000003814697,2.31999993324279,71.0400009155273,0.2869,1,3,5,75,NA,3,AL,1818,1112,0.3435,0.6565,101693,36613-2842
0.9009,21.02364532,7518,Montevallo,1,26709,NA,24840444,0.6827586207,0.3252375924,484,24000,410,1,University of Montevallo,www.montevallo.edu/,33.10625,-86.865099,NA,40439,36100,https://www.montevallo.edu/NetPriceCalculator/,00100400,0,0.0185,0.75999999046325,19.2999992370605,2.07999992370605,77.8000030517578,0.395,0.6414,3,5,NA,1131,3,AL,2476,2184,0.3608,0.6392,101709,35115-6000
0.8997,21.425309598,8567,Florence,1,21507,NA,39458675,0.6013931889,0.36326024,2854,22077,2442,1,University of North Alabama,www.una.edu/,34.80731,-87.680407,NA,42601,42800,studentnpc.collegeboard.org/,00101600,0,0.0048,0.55000001192092,13.2200002670288,2.04999995231628,83.7600021362304,0.3409,0.659,3,5,NA,NA,3,AL,7149,5165,0.3636,0.6364,101879,35632-0001
0.7185,21.73015873,5011,Huntsville,2,37238,NA,20201402,0.5860805861,0.17623498,100,27000,74,1,Oakwood University,https://www2.oakwood.edu/,34.756344,-86.652705,NA,41219,37400,https://oakwood.studentaidcalculator.com/,00103300,0,0.0152,3.17000007629394,34.9099998474121,10.0100002288818,54.4000015258789,0.472,0.9492,3,5,95,NA,3,AL,1870,1353,0.4339,0.5661,101912,35896
0.8387,21.151869159,9220,Birmingham,2,51314,NA,332869066,0.6588785047,0.1380552221,2476,19500,2151,1,Samford University,www.samford.edu/,33.464128,-86.791799,NA,54742,59800,https://www.samford.edu/admission/net-price-calculator,00103600,0,0.0033,1.69000005722045,14.6999998092651,3.25,80.9100036621093,0.1149,0.9898,3,5,54,1236,3,AL,3684,3604,0.333,0.667,102049,35229-2240
0.7078,21.947266881,7494,Mobile,1,22139,NA,470288000,0.6229367631,0.334257975,6164,24929,5159,1,University of South Alabama,www.southalabama.edu/,30.696033,-88.178711,NA,45018,46800,www.southalabama.edu/departments/finaid/netpricecalculator/,00105700,0.0929,0.0063,1.46000003814697,24.6800003051757,1.70000004768371,71.4300003051757,0.3672,0.5766,3,5,NA,1132,3,AL,10147,8631,0.3871,0.6129,102094,36688-0002
0.7152,19.902140673,5519,Mobile,2,56502,NA,17236188,0.6452599388,0.2516339869,189,27000,117,1,Spring Hill College,https://www.shc.edu/,30.694751,-88.138199,NA,51166,51300,https://www.shc.edu/admissions-aid/tuition-financial-aid/net-price-calculator/,00104100,0.0041,0.0041,1.75999999046325,22.5400009155273,4.75,72.6600036621093,0.3648,0.7748,3,5,30,1019,3,AL,1133,989,0.4146,0.5854,102234,36608-1791
0.758,21.027729636,5110,Tuscaloosa,2,24540,NA,18932197,0.4610051993,0.4105058366,NA,29067,NA,1,Stillman College,https://stillman.edu/,33.200006,-87.585278,NA,34087,33700,https://stillman.edu/admissions/cost-of-attendance/,00104400,0,0.0082,1.44000005722045,49.0499992370605,4.44000005722045,45.75,0.7433,0.5542,3,5,66,NA,3,AL,829,721,0.4341,0.5659,102270,35401
NA,21.151639344,6315,Talladega,2,22696,NA,2561968,0.4897540984,0.3980582524,18,28500,59,1,Talladega College,www.talladega.edu/,33.433472,-86.112704,NA,30032,23900,www.talladega.edu/netcalc/npcalc.htm,00104600,0,0.007,1.07000005245208,52.1399993896484,4.71000003814697,43.0900001525878,0.7167,0.5181,3,5,76,NA,3,AL,1380,1144,0.493,0.507,102298,35160
0.9527,25.749796913,7194,Troy,1,21376,NA,152060888,0.6510154346,0.3898457122,5513,25000,3604,1,Troy University,www.troy.edu/,31.799583,-85.95802,NA,41691,41100,www.troy.edu/net-price-calculator/index.html,00104700,0,0.0049,1.07000005245208,34,2.81999993324279,62.0200004577636,0.4028,0.4692,3,5,NA,1082,3,AL,15353,10916,0.3499,0.6501,102368,36082-0001
0.342,19.723193916,7398,Tuskegee,2,41991,NA,123415957,0.6509505703,0.2306438468,521,27000,470,1,Tuskegee University,www.tuskegee.edu/,32.4309,-85.708492,NA,43878,42200,npc.collegeboard.org/app/tuskegee?iframe=true,00105000,0.1962,0.0189,2.84999990463256,47.1599998474121,8.98999977111816,42.8499984741211,0.1318,0.886,3,5,NA,1080,3,AL,2537,2184,0.3736,0.6264,102377,36088-1920
0.6905,25.107503075,9370,Anchorage,1,20548,NA,60842848,0.5987699877,0.3891938746,866,20210,586,1,University of Alaska Anchorage,www.uaa.alaska.edu/,61.190163,-149.82619,NA,49846,51200,www.uaa.alaska.edu/financialaid/customcf/npcalc.htm,01146200,0.0397,0.0043,4.26000022888183,4.17999982833862,5.09000015258789,73.6600036621093,0.1999,0.5076,3,8,NA,NA,3,AK,18227,7284,0.3937,0.6063,102553,99508
0.6469,25.450308815,9570,Fairbanks,1,19621,NA,114179961,0.5940482875,0.3988326848,1198,20291,982,1,University of Alaska Fairbanks,www.uaf.edu/,64.85756,-147.823146,NA,46150,45100,uaf.edu/finaid/costs/net-price-calculator.php,00106300,0.0687,0.0038,2.49000000953674,4.67999982833862,4.67999982833862,69.3499984741211,0.2178,0.5811,3,8,NA,1169,3,AK,9527,4108,0.4092,0.5908,102614,99775
0.5625,26.966861598,8436,Juneau,1,16275,NA,6773153,0.6978557505,0.3951434879,370,19111,240,1,University of Alaska Southeast,www.uas.alaska.edu/,58.384846,-134.638255,NA,41500,39500,uas.alaska.edu/apply/cost-calculator.html,00106500,0,0.0047,3.58999991416931,1.35000002384185,4.61999988555908,73.9300003051757,0.1634,0.5114,1,8,NA,NA,3,AK,3100,999,0.3183,0.6817,102632,99801-8697
0.9603,25.582191781,6497,Anchorage,2,38278,NA,78389954,0.6301369863,NA,200,23500,178,1,Alaska Pacific University,www.alaskapacific.edu/,61.190968,-149.804168,NA,47105,45300,https://npc.collegeboard.org/student/app/alaskapacific,00106100,0,0,4.1100001335144,4.44999980926513,6.88999986648559,73.1299972534179,0.4103,0.4804,3,8,71,NA,3,AK,391,347,0.2219,0.7781,102669,99508
NA,28.032747119,4921,Vancouver,3,32511,NA,NA,0.7612694562,0.5540401441,NA,14176,NA,1,Charter College,https://chartercollege.edu/,45.617798,-122.494766,NA,35576,46400,https://chartercollege.studentaidcalculator.com/survey.aspx,02576900,0,0,5.40000009536743,5.8600001335144,5.84999990463256,71.1699981689453,0.5448,0.3295,1,8,NA,NA,1,WA,4002,2215,0.2573,0.7427,102845,98683-7575
NA,29.244757773,4348,Phoenix,3,NA,36627,NA,0.7960954447,0.5590327169,54,9500,32,1,Brookline College-Phoenix,www.brooklinecollege.edu/,33.566102,-112.112473,NA,26545,23700,https://enroll-brookline.educationpartners.com/Npc?NULL=NULL#NULLx,02218800,0,0,1.66999995708465,4.05999994277954,40.7299995422363,65.5899963378906,0.545,1,1,6,NA,NA,1,AZ,1954,1000,0.123,0.877,104090,85021
0.8819,24.7478311,11668,Tempe,1,26992,NA,821111133,0.5568306611,0.3813179205,13884,19500,13165,1,Arizona State University Campus Immersion,www.asu.edu/,33.417721,-111.934383,NA,58967,55500,https://students.asu.edu/financialaid/net-price,00108100,0.091,0.013,2.90000009536743,3.49000000953674,19.2000007629394,78.7600021362304,0.3276,0.7237,3,6,NA,NA,3,AZ,68985,64216,0.5032,0.4968,104151,85287
0.8727,21.308737695,11400,Tucson,1,27985,NA,983848320,0.5628539071,0.3140729569,11968,19620,10840,1,University of Arizona,https://www.arizona.edu/,32.232672,-110.950815,NA,59805,56000,https://arizona.studentaidcalculator.com/survey.aspx,00108300,0.068,0.011,3.15000009536743,3.34999990463256,22.5200004577636,77.5100021362304,0.2868,0.7586,3,6,NA,1230,3,AZ,40361,36560,0.4398,0.5602,104179,85721-0066
0.7376,25.385231459,9290,Prescott,2,56260,NA,51768000,0.1816434407,0.3554592721,53,23666,38,1,Embry-Riddle Aeronautical University-Prescott,prescott.erau.edu/,34.616766,-112.449741,NA,82012,70300,prescott.erau.edu/financial-aid/net-price-calculator,00147902,0.3448,0,3.64000010490417,9.75,11.329999923706,78.7900009155273,0.1901,0.7611,3,6,NA,1240,3,AZ,3154,3015,0.7333,0.2667,104586,86301-3720
0.8284,31.015651921,6956,Phoenix,3,31393,NA,NA,0.743284234,0.4744080533,61923,22114,37202,1,Grand Canyon University,www.gcu.edu/,33.513231,-112.129929,NA,38385,58500,https://www.gcu.edu/tuition-and-financial-aid,00107400,0.0078,0,2.61999988555908,10.3199996948242,15.7200002670288,75.2600021362304,0.4311,0.0868,3,6,NA,NA,3,AZ,96966,64210,0.2923,0.7077,104717,85017
NA,24.198358413,6347,Tsaile,1,14140,NA,8401082,0.634746922,0.4318936877,NA,NA,NA,1,Dine College,https://www.dinecollege.edu/,36.293328,-109.21684,NA,28968,23400,www.dinecollege.edu/net-price-calculator/,00824600,0,0.0144,0.15000000596046,0.18999999761581,1.94000005722045,5.34000015258789,0.4755,0.75,2,6,NA,NA,2,AZ,1872,1224,0.2353,0.7647,105297,86556
0.7835,24.125097428,8903,Flagstaff,1,28480,NA,203671000,0.6385814497,0.3868625756,5305,19000,4549,1,Northern Arizona University,https://nau.edu/,35.188449,-111.653724,NA,50118,44600,https://www7.nau.edu/finaid/NetPriceCalculator/,00108200,0.0406,0.0065,2.22000002861022,2.47000002861022,18.75,74.9000015258789,0.3174,0.6536,3,6,NA,NA,3,AZ,28044,23772,0.3646,0.6354,105330,86011-4092
NA,26.641976266,5216,Tucson,3,NA,NA,NA,0.8313038083,0.5053929122,NA,9500,66,1,Pima Medical Institute-Tucson,https://pmi.edu/,32.248067,-110.878783,NA,35113,30600,https://secure.pmi.edu/npcalc/,02217100,0,0,4.63000011444091,5.07000017166137,27.2099990844726,71.0100021362304,0.5309,0.2845,1,6,NA,NA,1,AZ,3871,2485,0.1803,0.8197,105534,85712
0.9932,27.980676329,5070,Prescott,2,44892,NA,2243628,0.6956521739,0.2319587629,772,16300,659,1,Prescott College,https://www.prescott.edu/,34.5452,-112.477185,NA,37590,34300,www.prescott.edu/net-price-calculator/,02065300,0,0,2.61999988555908,3.27999997138977,15.369999885559,81.870002746582,0.4455,0.359,3,6,NA,NA,3,AZ,558,383,0.3446,0.6554,105589,86301
0.7594,22.759109312,5291,Glendale,2,47850,NA,251427,0.2894736842,0.3825503356,NA,23000,NA,1,Arizona Christian University,arizonachristian.edu/,33.622952,-112.181776,NA,44012,34900,www.arizonachristian.edu/financial-aid/calculator/,00711300,0,0,2.39000010490417,2.34999990463256,19.7099990844726,82.2699966430664,0.3924,0.3222,3,6,88,1043,3,AZ,1076,1012,0.6126,0.3874,105899,85306-3216
0.5769,25.515523089,7772,Little Rock,1,20260,NA,137934462,0.6464909992,0.3910404624,2891,22000,2326,1,University of Arkansas at Little Rock,ualr.edu/www/,34.723254,-92.339778,NA,42973,39500,ualr.edu/finaid/npc/npcalc.htm,00110100,0.0134,0.0053,1.01999998092651,26.0699996948242,2.56999993324279,70.0500030517578,0.4255,1,3,5,NA,1119,3,AR,8064,5025,0.3584,0.6416,106245,72204
NA,28.42,9475,Little Rock,1,NA,NA,334680000,0.8375,0.3950276243,2265,14000,2004,1,University of Arkansas for Medical Sciences,https://www.uams.edu/,34.750152,-92.322348,NA,71265,69000,https://studentfinancialservices.uams.edu/tuition-and-fees/,00110900,0,0,0.86000001430511,16.4500007629394,2.97000002861022,79.3399963378906,0.326,0.8949,3,5,NA,NA,3,AR,976,1072,0.1455,0.8545,106263,72205-7199
NA,21.672,4397,Little Rock,2,22127,NA,NA,0.2502857143,0.4495289367,NA,25375,NA,1,Arkansas Baptist College,www.arkansasbaptist.edu/,34.734751,-92.290555,NA,27908,25100,www.arkansasbaptist.edu/financial-aid/net-price-calculator/,00108700,0,0,1.02999997138977,44.6699981689453,3.47000002861023,50.8600006103515,0.6659,0.5143,3,5,54,NA,2,AR,604,414,0.7826,0.2174,106306,72202-6068
0.2721,19.920110193,6087,Batesville,2,33415,NA,97668919,0.4325068871,0.3,NA,21500,NA,1,Lyon College,www.lyon.edu/,35.777619,-91.625354,NA,45416,44800,https://lyon.virtueanalytics.com/#!/home/npc,00108800,0,0.0556,0.93000000715255,6.86999988555908,3.13000011444091,88.7099990844726,0.388,0.8596,3,5,66,1163,3,AR,688,576,0.5885,0.4115,106342,72501
0.8267,21.283907238,10047,Fayetteville,1,23843,NA,1209277289,0.5588193956,0.2599614872,5556,21500,4803,1,University of Arkansas,https://www.uark.edu/,36.070009,-94.176981,NA,54417,52700,https://finaid.uark.edu/aid-calculator.php,00110800,0.1084,0.0047,1.4800000190734801,7.80999994277954,5.21999979019165,84.9499969482422,0.1795,0.8463,3,5,NA,1188,3,AR,24793,24001,0.4392,0.5608,106397,72701
0.6753,21.153024911,6008,Pine Bluff,1,18873,NA,7488701,0.5960854093,0.3677375256,200,24202,186,1,University of Arkansas at Pine Bluff,www.uapb.edu/,34.244031,-92.018683,NA,34777,30600,www.uapb.edu/admissions/net_price_calculator.aspx,00108600,0,0.0109,0.95999997854232,52.7000007629394,3.94000005722045,42.9199981689453,0.6984,0.8174,3,5,NA,902,3,AR,2698,2444,0.4088,0.5912,106412,71601
0.6329,23.319087044,7423,Jonesboro,1,21752,NA,82311424,0.6108749161,0.3882667965,8289,20500,4622,1,Arkansas State University,www.astate.edu/,35.842388,-90.679988,NA,39824,36600,www.astate.edu/a/finaid/tuition-fees/net-price-calculator/index.dot,00109000,0.0233,0.0047,0.49000000953674,13.9499998092651,1.92999994754791,83.2600021362304,0.367,1,3,5,NA,1149,3,AR,10162,7478,0.3728,0.6272,106458,72401
0.9437,23.041621268,6845,Russellville,1,19857,NA,49075714,0.5661364132,0.4574780059,1012,21000,739,1,Arkansas Tech University,www.atu.edu/,35.293237,-93.13562,NA,40334,38600,www.atu.edu/finaid/npcalc.htm,00108900,0.0287,0.0015,0.60000002384185,5.53999996185302,3.65000009536743,89.7600021362304,0.3553,0.9914,3,5,NA,NA,3,AR,11245,6467,0.441,0.559,106467,72801-2222
NA,23.630971129,5550,Monticello,1,19028,NA,3728045,0.537007874,0.4533974744,545,19971,420,1,University of Arkansas at Monticello,www.uamont.edu/,33.590909,-91.811153,NA,35216,35800,www.uamont.edu/NetPrice/npcalc.htm,00108500,0,0.003,0.40000000596046,32.6399993896484,2.84999990463256,64.1800003051757,0.5157,1,1,5,NA,NA,1,AR,2748,1946,0.4147,0.5853,106485,71656
0.9237,21.152542373,7271,Conway,1,21408,NA,37677482,0.6165561287,0.3459589224,2221,20346,1861,1,University of Central Arkansas,www.uca.edu/,35.077945,-92.457672,NA,43712,42500,uca.edu/financialaid/financial-aid-net-price-calculator/,00109200,0.0026,0.0053,0.72000002861022006,16.5699996948242,2.50999999046325,79.8000030517578,0.3658,0.8036,3,5,NA,1133,3,AR,9613,7763,0.3843,0.6157,106704,72035-0001
0.616,24.791962175,5492,Conway,2,27262,NA,3624265,0.4609929078,0.3455497382,NA,22250,NA,1,Central Baptist College,www.cbc.edu/,35.083838,-92.445021,NA,42333,43000,https://www.cbc.edu/estimateexpenses,00109300,0,0,0.81000000238418,12.4600000381469,2.98000001907348,83.2799987792968,0.4768,0.3011,3,5,54,1059,3,AR,693,546,0.5476,0.4524,106713,72034
NA,20.22875817,5516,Paragould,2,23830,NA,1528294,0.3921568627,0.3956834532,NA,26228,NA,1,Crowley's Ridge College,www.crc.edu/,36.064845,-90.584395,NA,29667,29600,crc.edu/wp/financial-aid/,00109500,0,0,0.47999998927116,7.26999998092651,2.28999996185302,89.6900024414062,0.5812,0.475,3,5,74,NA,3,AR,208,170,0.5588,0.4412,106810,72450
0.5414,20.986959506,7507,Searcy,2,33168,NA,166223072,0.5682910089,0.2054794521,1319,26500,1289,1,Harding University,www.harding.edu/,35.247386,-91.726143,NA,50273,47000,www.harding.edu/admissions/npc.html,00109700,0.0613,0.0035,1.82000005245208,8.89999961853027,5.73000001907348,84.5299987792968,0.2128,0.7235,3,5,74,1183,3,AR,3830,3262,0.4418,0.5582,107044,72149-5615
0.7501,21.535365152,6613,Arkadelphia,1,25533,NA,22488060,0.5543415756,0.3767383059,715,19500,691,1,Henderson State University,https://www.hsu.edu/,34.128155,-93.059703,NA,40681,40400,https://www.hsu.edu/pages/future-students/financial-aid/net-price-calculator/,00109800,0.0092,0.0018,0.76999998092651,16.4799995422363,4.30000019073486,78.7900009155273,0.4638,0.9947,3,5,NA,1084,3,AR,2895,2205,0.4726,0.5274,107071,71999-0001
0.683,19.430555556,7615,Conway,2,55218,NA,181804465,0.505952381,0.1920668058,14,26688,9,1,Hendrix College,https://www.hendrix.edu/,35.101565,-92.443256,NA,48230,44500,https://collegenpc.com/hendrixcollege,00109900,0,0.0256,2.00999999046325,11.7700004577636,5.55999994277954,81.620002746582,0.2863,1,3,5,71,1286,3,AR,1089,1103,0.4887,0.5113,107080,72032-3080
0.5287,24.157142857,7137,Siloam Springs,2,41492,NA,126697574,0.6155844156,0.2888283379,754,21250,685,1,John Brown University,https://www.jbu.edu/,36.189812,-94.560283,NA,54964,55400,https://admissions.jbu.edu/register/net-price-calculator,00110000,0.0757,0.0104,1.55999994277954,5.01000022888183,6.51999998092651,85.8399963378906,0.2489,0.9483,3,5,NA,1231,3,AR,2037,1381,0.4019,0.5981,107141,72761
0.7375,19.762951334,6545,Arkadelphia,2,41491,NA,120694205,0.4945054945,0.2354892206,81,21050,48,1,Ouachita Baptist University,www.obu.edu/,34.126093,-93.052471,NA,46670,46000,www.obu.edu/finaid/netpricecal.php,00110200,0,0.0028,2.36999988555908,12.7799997329711,7.63000011444091,78.9899978637695,0.2428,0.95,3,5,75,NA,3,AR,1736,1572,0.4262,0.5738,107512,71998-0001
0.5537,20.134831461,6875,Clarksville,2,34732,NA,112268256,0.4859550562,0.346875,NA,20875,NA,1,University of the Ozarks,https://www.ozarks.edu/,35.476278,-93.467221,NA,40448,38600,https://admissions.ozarks.edu/secure/calc/default.aspx,00109400,0,0.0065,1.12999999523162,6.57000017166137,7.28000020980835,85.8000030517578,0.3541,0.7969,3,5,66,1061,3,AR,904,775,0.4735,0.5265,107558,72830
NA,21.860791826,5891,Little Rock,2,25960,NA,9672116,0.6232439336,0.4303405573,NA,24736,NA,1,Philander Smith College,https://www.philander.edu/,34.737131,-92.283015,NA,35537,27300,https://www.philander.edu/admissions/paying-for-college/net-price-calculator,00110300,0,0.0274,1.41999995708465,46.1599998474121,4.92999982833862,48.0800018310547,0.7547,1,3,5,71,NA,3,AR,991,709,0.3611,0.6389,107600,72202-3799
0.641,20.942307692,5416,Walnut Ridge,2,31252,NA,13190757,0.4346153846,0.3235294118,32,21820,25,1,Williams Baptist University,https://williamsbaptistuniversity.com/,36.125676,-90.940277,NA,38840,36400,https://williamsbu.edu/wp-content/uploads/2021/12/index-2.html,00110600,0,0,0.38999998569488,6.09999990463257,1.70000004768371,90.870002746582,0.5094,1,3,5,75,1100,3,AR,639,593,0.4857,0.5143,107877,72476
0.626,21.33203125,7043,Magnolia,1,23732,NA,52176439,0.5619419643,0.4209215442,1446,18750,1274,1,Southern Arkansas University Main Campus,https://www.saumag.edu/,33.291618,-93.235922,NA,40671,39000,https://www.saumag.edu/netprice/,00110700,0.0188,0.0055,0.62000000476837,28.75,3.55999994277954,67.4800033569336,0.4505,0.5824,3,5,NA,1094,3,AR,3763,2795,0.4444,0.5556,107983,71753
NA,22.930601698,7009,Fort Smith,1,18174,NA,93712579,0.5636766334,0.4840221559,67,18250,44,1,University of Arkansas-Fort Smith,https://uafs.edu/,35.384184,-94.373729,NA,39832,35000,https://uafs.edu/tuition-and-aid/net-price-calculator.html,00111000,0.0152,0.0065,1.95000004768371,3.97000002861023,4.76999998092651,85.9400024414062,0.4137,0.7267,3,5,NA,NA,3,AR,6411,4188,0.393,0.607,108092,72913-3649
NA,25.72972973,9482,San Francisco,3,41301,NA,NA,0.5731981982,0.4083701586,3684,31000,2442,1,Academy of Art University,www.academyart.edu/,37.787943,-122.400578,NA,39739,47300,https://npc.collegeboard.org/student/app/academyart,00753100,0,0,11.9099998474121,8.25,15.3400001525878,67.9100036621093,0.4019,0.1973,3,8,NA,NA,3,CA,8243,5294,0.4343,0.5657,108232,94105
NA,24.98190709,9114,Lancaster,1,11709,NA,5501257,0.588590057,0.5615699806,NA,12500,NA,1,Antelope Valley Community College District,www.avc.edu/,34.676207,-118.186166,NA,33708,34500,https://misweb.cccco.edu/npc/621/npcalc.htm,00111300,0.0066,0.0188,3.44000005722045,13.8100004196167,29.5400009155273,61.4000015258789,0.3682,0.2408,2,8,NA,NA,2,CA,15487,9670,0.4179,0.5821,109350,93536-5426
0.7556,22.846570397,7942,Pasadena,2,68087,NA,98145000,0.5523465704,0.2428842505,328,31000,291,1,Art Center College of Design,www.artcenter.edu/,34.169031,-118.185102,NA,70731,62300,https://tcc.ruffalonl.com/Art-Center-College-of-Design/Freshman-Calculator,00111600,0,0,16.4599990844726,5.19999980926513,26.6599998474121,60.4799995422363,0.3007,0.2669,3,8,NA,NA,3,CA,2722,2026,0.4166,0.5834,109651,91103
0.941,26.05728789,8957,Azusa,2,54720,NA,76922937,0.7258883249,0.3798259924,5396,23219,4187,1,Azusa Pacific University,www.apu.edu/,34.130047,-117.888375,NA,61701,55900,https://www.apu.edu/undergraduate-admissions/financialaid/calculator/,00111700,0.0047,0.0113,8.48999977111816,4.34000015258789,27.7800006866455,68.4199981689453,0.3312,0.414,3,8,88,1117,3,CA,5098,3937,0.3172,0.6828,109785,91702-7000
NA,23.196973425,10874,Bakersfield,1,13485,NA,12624306,0.5835383858,0.6305084746,NA,8312,NA,1,Bakersfield College,www.bakersfieldcollege.edu/,35.40911,-118.973753,NA,35033,36000,https://misweb.cccco.edu/npc/521/npcalc.htm,00111800,0.0026,0.0051,3.84999990463256,5.96999979019165,44.3699989318847,56.6899986267089,0.2842,0.4769,2,8,NA,NA,2,CA,35587,16900,0.4422,0.5578,109819,93305-1299
NA,26.635416667,2482,Anaheim,2,19754,NA,NA,0.34375,0.4939759036,142,9000,102,1,Bethesda University,www.buc.edu/,33.842295,-117.941323,NA,NA,NA,www.buc.edu/net-price-calculator,03266300,0,0,24.9799995422363,4.13000011444091,37.7799987792968,46.0999984741211,0.2702,0.125,3,8,99,NA,3,CA,323,264,0.7727,0.2273,110060,92801
0.6077,20.36529372,9807,La Mirada,2,57403,NA,163345746,0.6677920324,0.2355072464,2478,23875,1955,1,Biola University,https://www.biola.edu/,33.906203,-118.014374,NA,53148,50700,https://www.biola.edu/financial-aid/resources/net-price-calculator#net-price,00112200,0.0123,0.0111,8.61999988555908,4.28999996185302,24.8199996948242,70.0699996948242,0.2736,1,3,8,88,1228,3,CA,3995,3592,0.38,0.62,110097,90639-0001
NA,33.258112094,5308,Tempe,3,23267,NA,NA,0.6715830875,0.535202864,NA,20000,NA,1,Bryan University,bryanuniversity.edu/,33.437779,-111.944197,NA,42510,36100,bryanuniversity.edu/about/consumer-info/net-price-calculator/,00716400,0,0,11.3199996948242,11.6700000762939,39.2799987792968,50.5,0.7363,0.1058,2,6,NA,NA,2,AZ,2302,1361,0.2895,0.7105,110219,85281
0.6373,24.09567021,10151,Riverside,2,46274,NA,82924687,0.6606170599,0.4160798122,4411,26063,3237,1,California Baptist University,www.calbaptist.edu/,33.929321,-117.425619,NA,56253,47500,https://calbaptist.studentaidcalculator.com/welcome.aspx,00112500,0.0777,0.0066,5.07999992370605,7.13999986648559,31.1499996185302,65.8300018310547,0.4417,0.4284,3,8,75,NA,3,CA,9311,8234,0.3651,0.6349,110361,92504-3297
0.7763,21.543243243,8739,San Francisco,2,68296,NA,37330000,0.6189189189,0.2441860465,396,27000,381,1,California College of the Arts,www.cca.edu/,37.767485,-122.399451,NA,49184,48000,www.cca.edu/admissions/tuition/#section-calculator,00112700,0,0,10.7200002670288,7.96999979019165,15.5699996948242,69.1100006103515,0.2324,0.2209,3,8,NA,NA,3,CA,1381,1239,0.364,0.636,110370,94107-2247
0.0392,19.347826087,20924,Pasadena,2,77718,NA,3085500000,0.4565217391,NA,1406,NA,1410,1,California Institute of Technology,www.caltech.edu/,34.137349,-118.125878,NA,104209,106300,www.finaid.caltech.edu/npc,00113100,0.2863,0.0969,11.3900003433227,5.51999998092651,16.25,72.120002746582,0.1154,0.941,3,8,NA,NA,3,CA,973,987,0.5532,0.4468,110404,91125
0.8194,22.313108614,10375,Thousand Oaks,2,55039,NA,116063460,0.6172284644,0.3538587849,1570,21669,1174,1,California Lutheran University,www.callutheran.edu/,34.224566,-118.878924,NA,65401,60200,https://www.callutheran.edu/financial-aid/tuition-fees/net-price-calculator.html,00113300,0,0.0085,6.53000020980835,3.42000007629394,22.5499992370605,74.0599975585937,0.3249,1,3,8,39,1200,3,CA,3100,2588,0.4672,0.5328,110413,91360-2787
0.33,20.141066545,10582,San Luis Obispo,1,28843,NA,226112910,0.5029626253,0.2480620155,1182,18500,1103,1,California Polytechnic State University-San Luis Obispo,calpoly.edu/,35.299513,-120.65731100000001,NA,85801,74300,https://www.calpoly.edu/net-price-calculator,00114300,0.2314,0.0173,8.3100004196167,3.38000011444091,20.6399993896484,73.4100036621093,0.1628,0.6798,3,8,NA,NA,3,CA,22137,21090,0.5128,0.4872,110422,93407
1,30.993670886,10251,San Diego,3,NA,NA,NA,0.6993670886,0.3192982456,3898,12878,3284,1,Alliant International University-San Diego,https://www.alliant.edu/,32.897056,-117.094398,NA,63932,65200,https://www.alliant.edu/net-price-calculator,01111700,0,0,10.0100002288818,8.47000026702881,23.2000007629394,65.2200012207031,0.0464,0.8582,1,8,NA,NA,1,CA,1019,227,0.326,0.674,110468,92131
0.8521,23.174311927,9468,Bakersfield,1,18172,NA,26944055,0.6426605505,0.5817223199,2052,16600,1605,1,California State University-Bakersfield,www.csub.edu/,35.350005,-119.104711,NA,55530,50100,https://www2.calstate.edu/attend/paying-for-college/Pages/csu-costs.aspx,00799300,0.028,0.0156,4.15000009536743,7.32999992370605,38.3199996948242,60.1599998474121,0.6105,0.509,3,8,NA,NA,3,CA,11036,8870,0.3435,0.6565,110486,93311-1099
0.9476,23.210428737,9639,Turlock,1,17005,NA,16131357,0.6771726535,0.5994566858,1508,13540,1283,1,California State University-Stanislaus,https://www.csustan.edu/,37.52577,-120.852511,NA,58120,48500,https://finaid.csustan.edu/netpricecalculator/npcalc.htm,00115700,0,0.0137,6.5,3.90000009536743,32.9900016784668,64.7799987792968,0.5706,0.5114,3,8,NA,NA,3,CA,10962,9161,0.3293,0.6707,110495,95382-0299
0.9097,22.733373713,9973,San Bernardino,1,13365,NA,45146813,0.6247122956,0.5968578162,2863,14715,2656,1,California State University-San Bernardino,www.csusb.edu/,34.182622,-117.323801,NA,55258,48800,https://www2.calstate.edu/attend/paying-for-college/Pages/csu-costs.aspx,00114200,0.0093,0.0184,4.71999979019165,9.72000026702881,39.5800018310546,58.1300010681152,0.603,0.4662,3,8,NA,NA,3,CA,18930,16595,0.3745,0.6255,110510,92407-2393
0.6062,22.382135827,10556,Pomona,1,22108,NA,105450164,0.4947096457,0.4927816639,2465,16000,2482,1,California State Polytechnic University-Pomona,www.cpp.edu/,34.057912,-117.821476,NA,67406,58000,https://www.cpp.edu/financial-aid/resources/net-price-calculator.shtml,00114400,0.1548,0.0183,15.6599998474121,5.55000019073486,40.9799995422363,52.3600006103515,0.485,0.4535,3,8,NA,NA,3,CA,29280,26802,0.5362,0.4638,110529,91768
0.8547,22.35678392,9593,Chico,1,22469,NA,62941713,0.5745917085,0.4734012975,1236,16552,1240,1,California State University-Chico,www.csuchico.edu/,39.729712,-121.844859,NA,61010,55400,https://www2.calstate.edu/attend/paying-for-college/Pages/csu-costs.aspx,00114600,0.0546,0.0063,5.6100001335144,2.72000002861022,16.8400001525878,77.5199966430664,0.4324,0.5639,3,8,NA,NA,3,CA,16905,14343,0.4549,0.5451,110538,95929-0150
0.8959,25.305068383,9821,Carson,1,14579,NA,13967089,0.6572807723,0.5905017921,3116,13807,2599,1,California State University-Dominguez Hills,https://www.csudh.edu/,33.864766,-118.255917,NA,49934,48500,https://www.calstate.edu/attend/paying-for-college/Pages/csu-costs.aspx,00114100,0,0.0101,8.93000030517578,21.1800003051757,45.4700012207031,38.2599983215332,0.6283,0.4384,3,8,NA,NA,3,CA,17064,15214,0.3691,0.6309,110547,90747-0005
0.9728,22.340420892,9546,Fresno,1,17014,NA,160725549,0.6211972522,0.5324517404,3129,14505,2860,1,California State University-Fresno,www.fresnostate.edu/,36.811154,-119.744569,NA,55534,48500,https://studentaffairs.fresnostate.edu/financialaid/netprice/index.html,00114700,0.0376,0.0068,6.96000003814697,5.07999992370605,40.8300018310546,58.060001373291,0.5726,0.5404,3,8,NA,NA,3,CA,24106,21826,0.398,0.602,110556,93740
0.5943,22.855964516,10353,Fullerton,1,14182,NA,83135713,0.5980079371,0.4944552529,5768,13750,5138,1,California State University-Fullerton,www.fullerton.edu/,33.881506,-117.885446,NA,58585,51800,www.fullerton.edu/financialaid/calculator/,00113700,0.0423,0.0087,13.789999961853,4.26999998092651,37.3800010681152,57.7700004577636,0.4704,0.4985,3,8,NA,NA,3,CA,41714,35502,0.4116,0.5884,110565,92831-3599
0.8236,24.616321762,10355,Hayward,1,22134,NA,16921045,0.659212283,0.5092975207,3642,16544,3075,1,California State University-East Bay,www.csueastbay.edu/,37.657694,-122.054135,NA,64188,58200,www.csueastbay.edu/financialaid/files/images/net-price-calculator/npcalc.htm,00113800,0.0084,0.0108,19.2999992370605,12.8400001525878,22.2800006866455,50.0900001525879,0.4527,0.4484,3,8,NA,NA,3,CA,14925,12047,0.3985,0.6015,110574,94542
0.4685,22.631205088,10297,Long Beach,1,18699,NA,85609003,0.5901544561,0.4862716763,6709,14289,6293,1,California State University-Long Beach,www.csulb.edu/,33.782818,-118.11204,NA,60973,53000,https://www2.calstate.edu/attend/paying-for-college/Pages/csu-costs.aspx,00113900,0.0777,0.0116,13.079999923706,8.3100004196167,36.7000007629394,53.6699981689453,0.5058,0.4597,3,8,NA,NA,3,CA,36746,33765,0.4227,0.5773,110583,90840-0115
0.9054,23.049723757,10102,Los Angeles,1,13712,NA,49109390,0.6057798555,0.6153393718,4438,13000,3977,1,California State University-Los Angeles,https://www.calstatela.edu/,34.066927,-118.168965,NA,54219,49900,https://www2.calstate.edu/attend/paying-for-college/Pages/csu-costs.aspx,00114000,0.0601,0.0074,14.8800001144409,8.72999954223632,52.0499992370605,42.6899986267089,0.6616,0.4353,3,8,NA,NA,3,CA,24729,23506,0.4062,0.5938,110592,90032-8506
0.881,22.681205723,10127,Northridge,1,19641,NA,139512006,0.5794554799,0.5386728094,6507,13872,5612,1,California State University-Northridge,https://www.csun.edu/,34.240126,-118.529319,NA,56375,49700,https://www.csun.edu/financialaid/net-price-calculator,00115300,0.0482,0.0066,9.46000003814697,7.88999986648559,36.7900009155273,57.3699989318847,0.5666,0.4428,3,8,NA,NA,3,CA,36779,34436,0.4505,0.5495,110608,91330
0.9368,23.194871795,9713,Sacramento,1,17561,NA,55008546,0.5933941764,0.4904833191,3557,15000,3047,1,California State University-Sacramento,https://www.csus.edu/,38.559415,-121.423549,NA,61267,54200,https://www2.calstate.edu/attend/paying-for-college/Pages/csu-costs.aspx,00115000,0.0701,0.0084,10.4200000762939,7.88999986648559,19.7999992370605,64.8399963378906,0.5015,0.4602,3,8,NA,NA,3,CA,32919,29370,0.4281,0.5719,110617,95819-2694
0.1444,21.506537388,18770,Berkeley,1,37510,NA,2173287000,0.5464962539,0.3458005249,12524,13000,13222,1,University of California-Berkeley,www.berkeley.edu/,37.871918,-122.260463,NA,88046,79000,https://financialaid.berkeley.edu/financial-literacy-and-resources-financial-literacy-and-resources/,00131200,0.1227,0.0427,16.6900005340576,6.80999994277954,23.5699996948242,59.2599983215332,0.272,0.6688,3,8,NA,NA,3,CA,33060,31811,0.454,0.546,110635,94720
0.4875,21.202801724,15968,Davis,1,33396,NA,484130000,0.6267241379,0.4083114282,8347,13000,8393,1,University of California-Davis,ucdavis.edu/,38.539667,-121.749567,NA,74305,68100,myawards.ucdavis.edu/AidEstimator,00131300,0.096,0.0364,16.9599990844726,6.51999998092651,22.3199996948242,59.1300010681152,0.3429,0.8616,3,8,NA,NA,3,CA,33396,31637,0.3983,0.6017,110644,95616-8678
0.2882,20.456399515,16688,Irvine,1,30173,NA,532004000,0.5660897365,0.4398111723,7107,15000,7056,1,University of California-Irvine,www.uci.edu/,33.648434,-117.841248,NA,76593,65800,www.ofas.uci.edu/content/Calculator.aspx,00131400,0.1084,0.0305,17.7399997711181,4.36999988555908,28.7099990844726,58.4000015258789,0.3837,0.798,3,8,NA,NA,3,CA,31372,29438,0.454,0.546,110653,92697
0.1077,21.083592708,19498,Los Angeles,1,29153,NA,2359984000,0.6031569586,0.3808913934,13528,14000,13994,1,University of California-Los Angeles,www.ucla.edu/,34.07178,-118.442179,NA,79826,73200,https://admission.ucla.edu/tuition-aid/net-cost-calculator,00131500,0.075,0.0696,15.579999923706,5.80000019073486,29.7700004577636,58.0400009155273,0.2842,0.7182,3,8,NA,NA,3,CA,33971,32122,0.4023,0.5977,110662,90095-1405
0.6538,20.26240301,14807,Riverside,1,30569,NA,193196000,0.5768869034,0.4834699068,3981,17500,3979,1,University of California-Riverside,www.ucr.edu/,33.97246,-117.32741,NA,63645,55300,netpricecalculator.ucr.edu/,00131600,0.074,0.0349,14.4099998474121,7.03999996185302,36.5499992370605,53.9000015258789,0.4999,0.8512,3,8,NA,NA,3,CA,24616,22817,0.4701,0.5299,110671,92521
0.342,20.78065032,16913,La Jolla,1,32719,NA,895245000,0.5198560768,0.3957082833,8114,15500,8542,1,University of California-San Diego,www.ucsd.edu/,32.877749,-117.235866,NA,82255,69600,fas.ucsd.edu/forms-and-resources/financial-aid-estimator/index.html,00131700,0.1245,0.043,16.8700008392334,4.63999986648559,26.2900009155273,60.1500015258789,0.3338,0.8544,3,8,NA,NA,3,CA,33568,33339,0.4871,0.5129,110680,92093
0.2918,20.176479775,17654,Santa Barbara,1,34738,NA,278285000,0.5778541309,0.4240058108,3073,13993,3033,1,University of California-Santa Barbara,www.ucsb.edu/,34.416297,-119.846426,NA,70326,62400,finaid.ucsb.edu/net-price-calculator,00132000,0.0374,0.0849,10.3800001144409,4.94000005722045,30.1700000762939,63.8199996948242,0.32,0.8759,3,8,NA,NA,3,CA,25149,23081,0.4383,0.5617,110705,93106
0.5864,20.455008787,15513,Santa Cruz,1,37040,NA,115645000,0.5430579965,0.3674975075,2088,16666,1977,1,University of California-Santa Cruz,www.ucsc.edu/,36.995584,-122.058801,NA,64166,53800,www2.ucsc.edu/finaidcalc/,00132100,0.0343,0.0215,13.0299997329711,5.07999992370605,22.8700008392334,64.8199996948242,0.3178,0.7383,3,8,NA,NA,3,CA,18693,17864,0.5217,0.4783,110714,95064-1011
0.2898,21.19205298,9555,Valencia,2,74931,NA,179402319,0.5264900662,0.1573426573,438,25000,479,1,California Institute of the Arts,https://www.calarts.edu/,34.39327,-118.566837,NA,41120,50600,https://files.calarts.edu/docs/financial-aid/calarts-net-price-calculator/,00113200,0,0,7.86999988555908,7.23999977111816,21.1100006103515,70.2600021362304,0.227,0.6492,3,8,NA,NA,3,CA,818,959,0.4171,0.5829,111081,91355-2397
0.8209,21.15920398,10310,Vallejo,1,24845,NA,10783408,0.1915422886,0.1994750656,50,24965,45,1,California State University Maritime Academy,https://www.csum.edu/,38.069061,-122.231551,NA,91812,87800,https://www2.calstate.edu/attend/paying-for-college/Pages/csu-costs.aspx,00113400,0.1377,0,11.1499996185302,5.42000007629394,16.3700008392334,69.1999969482422,0.2734,0.7614,3,8,NA,NA,3,CA,926,880,0.8068,0.1932,111188,94590-8181
1,28.555555556,7748,Sherman Oaks,2,NA,28123,NA,0.6222222222,0.5291479821,NA,26791,NA,1,Casa Loma College-Los Angeles,https://www.casalomacollege.edu/,34.155096,-118.466548,NA,52626,52400,https://casalomacollege.studentaidcalculator.com/survey.aspx,00673100,0,0,9.8100004196167,16.329999923706,42.6599998474121,44.7900009155273,0.437,0.2143,2,8,NA,NA,1,CA,315,246,0.3902,0.6098,111638,91403
0.6037,19.902770234,12582,Orange,2,71065,NA,412064000,0.6474741988,0.1787741203,2570,20500,2277,1,Chapman University,https://www.chapman.edu/,33.79302,-117.852518,NA,64844,56600,https://www.chapman.edu/students/tuition-and-aid/financial-aid/net-cost-calculator/index.aspx,00116400,0.0038,0.0189,7.88999986648559,4.46999979019165,24.7099990844726,69.870002746582,0.1898,0.9965,3,8,61,1318,3,CA,7803,7469,0.3963,0.6037,111948,92866
0.6329,28.516129032,9170,Los Angeles,2,36763,NA,91406000,0.6774193548,0.4770642202,969,18750,640,1,Charles R Drew University of Medicine and Science,www.cdrewu.edu/,33.925658,-118.242791,NA,103684,82700,https://docs-cdrewu.cloud/assets/admissions/PriceCalculator.html,01036500,0,0,10.4099998474121,19.1399993896484,43.2700004577636,40.8300018310546,0.5256,0.2663,2,8,NA,NA,2,CA,285,255,0.3412,0.6588,111966,90059
0.8138,22.589552239,7385,Irvine,2,53068,NA,35171761,0.6727078891,0.2838633687,3485,24247,2126,1,Concordia University-Irvine,www.cui.edu/,33.653665,-117.812305,NA,59831,50800,www.cui.edu/studentlife/financial-aid/undergraduate/index.aspx?id=21911,02070500,0,0.0191,9.67000007629394,3.94000005722045,23.8700008392334,70.0800018310547,0.257,1,3,8,68,1174,3,CA,1880,1580,0.3975,0.6025,112075,92612-3203
0.527,26.783216783,6874,Spring Valley,2,47504,NA,719210,0.5431235431,0.4083769634,80,24941,13,1,San Diego Christian College,sdcc.edu/,32.750035,-116.993906,NA,50020,42500,sdcc.edu/admissions/undergraduate-admissions/tuition-and-financial-aid/,01203100,0,0,6.34999990463257,5.05999994277954,22.8999996185302,72.3300018310547,0.3561,0.1183,3,8,88,NA,3,CA,535,438,0.4498,0.5502,112084,91977
0.1124,19.497652582,14789,Claremont,2,66496,NA,952269000,0.4882629108,NA,2,13500,6,1,Claremont McKenna College,www.cmc.edu/,34.102154,-117.711188,NA,97174,93200,https://npc.collegeboard.org/student/app/claremontmckenna,00117000,0.0195,0.039,11.6700000762939,5.46000003814697,19.579999923706,68.7799987792968,0.1973,0.9326,3,8,NA,1487,3,CA,1329,1414,0.4922,0.5078,112260,91711-6400
0.5065,21.332191781,7739,San Jose,3,35103,NA,NA,0.3424657534,0.2790697674,13,31000,9,1,University of Silicon Valley,https://usv.edu/,37.414049,-121.94087,NA,55079,60400,https://usv.edu/forms/netpricecalculator.html,00117700,0,0,17.3099994659423,3.26999998092651,17.6700000762939,65.9300003051757,0.4611,0.3604,3,8,NA,NA,3,CA,610,420,0.7381,0.2619,112394,95134
NA,21.175675676,6369,Tarzana,2,39843,NA,NA,0.4504504505,0.2953367876,NA,25000,NA,1,Columbia College Hollywood,https://www.columbiacollege.edu/,34.17972,-118.538793,NA,37542,39500,https://columbiacollege.edu/admissions/financial-aid-overview/net-price-calculator/,02110200,0,0,6.17000007629394,9.23999977111816,20.3099994659423,70.1399993896484,0.5289,0.0721,3,8,NA,NA,3,CA,926,493,0.568,0.432,112570,91356-1411
NA,23.849432427,10440,Cypress,1,13898,NA,NA,0.6001285072,0.5358838313,NA,10000,NA,1,Cypress College,www.cypresscollege.edu/,33.82833,-118.025143,NA,42219,41100,misweb.cccco.edu/npc/861/npcalc.htm,00119300,3e-4,0.0152,16.7999992370605,5.38000011444091,37.8699989318847,52.4599990844726,0.2928,0.3575,2,8,NA,NA,2,CA,20472,12090,0.4112,0.5888,113236,90630-5897
1,26.632352941,6611,San Diego,3,39422,NA,NA,NA,NA,10,36844,8,1,Design Institute of San Diego,www.disd.edu/,32.880926,-117.167374,NA,47121,42300,https://disd.studentaidcalculator.com/survey.aspx,02298000,0,0,7.57000017166137,4.6100001335144,20.7600002288818,73.0800018310547,0.4113,0.3191,3,8,NA,NA,3,CA,161,119,0.1092,0.8908,113582,92121
0.9293,21.482954545,9008,San Rafael,2,66179,NA,30877436,0.7291666667,0.306122449,497,27000,606,1,Dominican University of California,https://www.dominican.edu/,37.981279,-122.512051,NA,71134,63600,https://www.shoppingsheet.com/Shopping/Landing/dominican,00119600,0,0,12.8900003433227,6.19999980926513,18.9200000762939,65.7300033569336,0.33,0.2769,3,8,NA,1160,3,CA,1452,1243,0.3121,0.6879,113698,94901-2298
0.3597,21.518495298,6100,Los Angeles,3,52083,NA,NA,0.8902821317,0.3015873016,49,13734,40,1,FIDM-Fashion Institute of Design & Merchandising,www.fidm.edu/,34.044209,-118.25993,NA,46231,42400,https://npc.collegeboard.org/student/app/fidm,01111200,0,0,10.5900001525878,6.44000005722046,24.6800003051757,65.4599990844726,0.2971,0.0417,2,8,NA,NA,2,CA,2171,1724,0.1752,0.8248,114354,90015-1421
NA,23.130620985,9476,Quincy,1,17276,NA,48225,0.5331905782,0.4843373494,NA,10750,NA,1,Feather River Community College District,www.frc.edu/,39.953101,-120.973067,NA,31848,34600,https://misweb.cccco.edu/npc/121/npcalc.htm,00859700,0,0,4.03999996185302,2.64000010490417,10,82.7200012207031,0.1046,0.2414,2,8,NA,NA,2,CA,2601,1220,0.5164,0.4836,114433,95971-9124
NA,25.276225947,9865,Los Altos Hills,1,15141,NA,9567511,0.6058348852,0.4988575781,NA,10500,NA,1,Foothill College,https://foothill.edu/,37.361655,-122.127964,NA,53611,58300,https://misweb.cccco.edu/npc/422/npcalc.htm,00119900,0.0034,0.0221,20.2000007629394,4.82999992370605,20.3099994659423,59.3800010681152,0.0678,0.3196,2,8,NA,NA,2,CA,27292,10593,0.5245,0.4755,114716,94022
0.7786,28.673539519,7738,Fresno,2,38688,NA,17569795,0.7451317297,0.4657631954,1449,23146,838,1,Fresno Pacific University,www.fresno.edu/,36.726831,-119.735199,NA,55044,45600,https://tcc.noellevitz.com/(S(2udqcz4v5juwacioemspbydx))/Fresno Pacific University/Freshman Students,00125300,0,0.0034,5.59000015258789,4.1100001335144,39.6500015258789,61.5299987792968,0.6093,0.9412,3,8,43,1100,3,CA,2949,2668,0.2721,0.7279,114813,93702-4709
NA,28.021413276,8000,Glendale,3,NA,46095,NA,0.7944325482,0.5517241379,NA,9500,NA,1,Glendale Career College,www.success.edu/,34.149771,-118.254719,NA,40028,32300,nw.edu/ecamp/npc-nwc/npcalc.htm,02338500,0,0,9.27000045776367,7.67000007629394,33.5499992370605,60.1199989318847,0.4716,NA,1,8,NA,NA,1,CA,629,305,0.2033,0.7967,115010,91203
NA,33.274853801,9486,San Francisco,2,NA,NA,41389065,0.5438596491,0.5273972603,2474,29875,1734,1,Golden Gate University,www.ggu.edu/,37.789374,-122.398969,NA,86864,82300,www.ggu.edu/undergraduate/enrollment/financial-aid/net-price-calculator,00120500,0,0,18.6000003814697,7.98999977111816,18.7099990844726,58.2400016784668,0.1563,1,3,8,NA,NA,3,CA,929,679,0.7216,0.2784,115083,94105-2968
0.0999,19.230392157,14431,Claremont,2,63989,NA,319714177,0.4362745098,NA,NA,25000,NA,1,Harvey Mudd College,https://www.hmc.edu/,34.106515,-117.709837,NA,128215,104200,https://npc.collegeboard.org/student/app/hmc,00117100,0.3085,0.0798,12.3599996566772,4.30000019073486,15.5299997329711,71.75,0.1206,0.9604,3,8,NA,1533,3,CA,970,905,0.5028,0.4972,115409,91711
0.9531,22.581699346,8092,Oakland,2,54556,NA,54619996,0.6666666667,0.4749034749,400,24125,419,1,Holy Names University,www.hnu.edu/,37.802276,-122.187804,NA,67068,57600,https://hnu.edu/admissions-aid/financial-aid/net-price-calculator/,00118300,0,0,16.7000007629394,15.8000001907348,22.7999992370605,49.0400009155273,0.4598,0.1795,3,8,30,NA,3,CA,812,592,0.3361,0.6639,115728,94619-1699
0.9146,22.30773496,9796,Arcata,1,24219,NA,32587726,0.5871915719,0.44061178,675,18000,554,1,California State Polytechnic University-Humboldt,www.humboldt.edu/,40.877481,-124.078293,NA,46266,40100,https://finaid.humboldt.edu/sites/default/files/calculator/,00114900,0.0231,0.0089,5.40999984741211,4.57999992370605,17.7600002288818,74.2600021362304,0.515,0.5407,3,8,NA,NA,3,CA,6509,5336,0.4162,0.5838,115755,95521-8299
NA,28.439873418,5621,Stockton,2,24088,NA,171384,0.7753164557,0.5897435897,247,35500,153,1,Humphreys University-Stockton and Modesto Campuses,www.humphreys.edu/,38.011489,-121.316918,NA,37815,33200,www.humphreys.edu/admissions-aid/financial-aid/net-price-calculator/,00121200,0,0,12.579999923706,6.94999980926513,30.3099994659423,56.8300018310547,0.6696,0.1346,3,8,NA,NA,3,CA,341,197,0.2234,0.7766,115773,95207
NA,30.088607595,8130,Newport Beach,3,NA,NA,NA,NA,NA,6,22082,3,1,Interior Designers Institute,https://www.idi.edu/,33.641393,-117.865722,NA,43282,46300,https://www.idi.edu/NetPriceCalculator/npcalc.html,02520300,0,0,11.789999961853,2.77999997138977,22.8199996948242,69.7600021362304,0.2374,NA,2,8,NA,NA,2,CA,182,110,0.0091,0.9909,116226,92660
0.9397,21.878594249,6168,San Dimas,2,31462,NA,4030013,0.552715655,0.3714285714,149,22395,131,1,Life Pacific University,https://www.lifepacific.edu/,34.098705,-117.829388,NA,40331,34400,https://lifepacific-netpricecalculator.s3.amazonaws.com/index.html,02270600,0,0,6.46000003814697,5.88000011444091,22.6900005340576,71.3499984741211,0.502,0.2169,3,8,79,NA,3,CA,534,419,0.4535,0.5465,117104,91773-3298
0.7194,26.103714085,9284,La Verne,2,60612,NA,109253175,0.6243868255,0.5062086093,3534,23500,2510,1,University of La Verne,https://www.laverne.edu/,34.100855,-117.773262,NA,62629,52700,https://laverne.edu/financial-aid/npc/,00121600,0,0.0016,8.56999969482422,6.57000017166137,38.7000007629394,59.2599983215332,0.4706,0.3388,3,8,NA,1028,3,CA,4749,3686,0.3966,0.6034,117140,91750-4401
0.833,21.415458937,9260,Laguna Beach,2,53081,NA,3052027,0.7198067633,0.219895288,39,27000,31,1,Laguna College of Art and Design,www.lcad.edu/,33.561448,-117.772564,NA,55170,41400,https://www.lcad.edu/admissions/tuition-financial-aid/net-price-calculator,02330500,0,0,8.60000038146972,5.34000015258789,18.7000007629394,73.1100006103515,0.3566,0.1337,3,8,NA,NA,3,CA,784,735,0.2639,0.7361,117168,92651
NA,26.117647059,6701,Oakland,2,22440,NA,16726,NA,NA,374,NA,202,1,Lincoln University,https://lincolnuca.edu/,37.804788,-122.269745,NA,NA,NA,file.lincolnuca.edu/2021/Spring 2021/Others/npcalc.html,00697500,0,0,16.8400001525878,12.1999998092651,18.3899993896484,55.3899993896484,0.2184,0.5806,3,8,NA,NA,3,CA,178,168,0.7798,0.2202,117557,94612-2801
0.6607,21.089770355,8020,Riverside,2,46046,NA,20797171,0.633611691,0.3961584634,594,27000,387,1,La Sierra University,https://lasierra.edu/,33.910704,-117.500054,NA,60858,54600,https://lasierra.edu/sfs/scholarships/,00121500,0,0.0033,8.77000045776367,7.78000020980835,33.3400001525878,59.9399986267089,0.4411,0.5138,3,8,95,1023,3,CA,1678,1270,0.4134,0.5866,117627,92505-8247
NA,25.97398374,8935,Loma Linda,2,NA,NA,428977000,0.7089430894,0.3838951311,3568,20854,3317,1,Loma Linda University,www.llu.edu/index.html,34.051241,-117.260605,NA,85686,93600,www.llu.edu/explore/step1.html,00121800,0,0,9.76000022888183,6.57999992370605,26.8099994659423,64.4199981689453,0.3099,0.9504,3,8,95,NA,3,CA,1661,980,0.2633,0.7367,117636,92350
NA,32.702702703,7714,Whittier,2,NA,NA,1921889,0.7567567568,NA,1029,11400,1019,1,Southern California University of Health Sciences,https://www.scuhs.edu/,33.922966,-117.983401,NA,63949,NA,https://www.scuhs.edu/financial-aid/,00122900,0,0,NA,NA,NA,NA,0.1148,0.2335,1,8,NA,NA,1,CA,2252,130,0.1692,0.8308,117672,90604
0.6698,22.258474576,8364,Santa Clarita,2,43385,NA,31837881,0.4597457627,0.2282608696,1151,20500,853,1,The Master's University and Seminary,www.masters.edu/,34.381755,-118.518193,NA,53478,52100,https://www.masters.edu/financial-aid/total-cost-calculator,00122000,0,0.0081,6.15000009536743,4.42000007629394,20.3999996185302,74.5699996948242,0.2456,0.3527,3,8,42,NA,3,CA,2207,1338,0.5224,0.4776,117751,91321-1200
0.4582,20.600768808,12022,Los Angeles,2,59539,NA,477020000,0.5991213619,0.2240373396,3389,19500,3057,1,Loyola Marymount University,https://www.lmu.edu/,33.97085,-118.415744,NA,71771,71600,https://lmu.studentaidcalculator.com/survey.aspx,01164900,0.0468,0.0085,12.0100002288818,7.82000017166137,24.1700000762939,62.5099983215332,0.1431,0.5876,3,8,30,1354,3,CA,7138,6999,0.4642,0.5358,117946,90045-2659
0.6978,20.857594936999998,9962,Atherton,2,64663,NA,21919477,0.5094936709,0.4006849315,NA,21750,NA,1,Menlo College,www.menlo.edu/,37.453475,-122.190797,NA,64817,59700,npc.collegeboard.org/app/menlo,00123600,0,0,16.329999923706,4.94999980926513,22.1700000762939,58.0099983215332,0.3366,0.2449,3,8,NA,NA,3,CA,856,743,0.5437,0.4563,118693,94027-4301
0.7981,22.816513761,10284,Oakland,2,47187,NA,187318992,NA,0.3315363881,394,21481,371,1,Mills College at Northeastern University,https://www.mills.edu/,37.781425,-122.182294,NA,57423,49500,https://tcc.noellevitz.com/(S(4bgxyozk2ejy4wajqx3hoapx))/Mills College/Freshman-Students,00123800,0,0.0058,12.9700002670288,10.539999961853,17.6900005340576,62.3199996948242,0.4563,0.3487,3,8,NA,1395,3,CA,698,438,0.0046,0.9954,118888,94613
NA,25.405693177,13738,Oceanside,1,12359,NA,13449963,0.6114732725,0.5097139773,NA,9000,NA,1,MiraCosta College,www.miracosta.edu/,33.190483,-117.302606,NA,38606,34300,https://misweb.cccco.edu/npc/051/npcalc.htm,00123900,0,2e-4,4.94000005722045,5.03000020980835,25.7999992370605,71.3399963378906,0.249,0.2578,2,8,NA,NA,1,CA,18204,10436,0.3975,0.6025,118912,92056-3899
NA,24.644315757,10245,Modesto,1,18817,NA,7465935,0.5973788479,0.5986489171,NA,NA,NA,1,Modesto Junior College,https://www.mjc.edu/,37.651056,-121.009792,NA,37417,36100,https://misweb.cccco.edu/npc/592/npcalc.htm,00124000,0,0.0028,4.63000011444091,2.95000004768371,31.2299995422363,68.7300033569336,0.2984,0.4458,2,8,NA,NA,2,CA,22463,12949,0.3764,0.6236,118976,95350-5800
0.9012,23.69490485,10354,Los Angeles,2,56544,NA,138585293,0.9312461633,0.4972592013,892,25949,695,1,Mount Saint Mary's University,https://www.msmu.edu/,34.085315,-118.482879,NA,72991,63500,https://www.msmu.edu/academics/financial-aid/cost-calculator.aspx,00124300,0,0.0018,11.3400001525878,10.789999961853,44.8699989318847,47.9599990844726,0.5569,0.3191,3,8,30,NA,3,CA,2378,1898,0.0632,0.9368,119173,90049-1599
0.7857,24.488817891,2543,Hollywood,3,40208,NA,NA,0.2124600639,0.3411552347,NA,NA,11,1,Musicians Institute,www.mi.edu/,34.101265,-118.337582,NA,31511,36900,mi.edu/student-consumer-disclosure/net-price-calculator/,02161800,0,0,7.59000015258789,8.03999996185302,26.2399997711181,66.0400009155273,0.1936,0.3011,1,8,NA,NA,1,CA,1098,744,0.7258,0.2742,119270,90028
0.5455,31.653004884,10145,San Diego,2,18576,NA,966159194,0.6353790614,0.4400887574,15659,25000,9487,1,National University,www.nu.edu/,32.829299,-117.127296,NA,66998,59000,www.nu.edu/npcalc/npcalc.htm,01146000,0.0149,0.0035,9.11999988555908,7.34999990463257,28.6800003051757,63,0.1654,0.09,3,8,NA,NA,3,CA,14426,7160,0.4821,0.5179,119605,92123
0.6085,24.364238411,6756,San Diego,3,55686,NA,NA,0.3509933775,0.3787878788,125,31000,77,1,Newschool of Architecture and Design,www.newschoolarch.edu/,32.71331,-117.153305,NA,62773,55100,newschoolarch.edu/admissions/scholarships-and-financial-aid/financial-aid/,03043900,0,0,8.11999988555908,5.71000003814697,26.6499996185302,68.0100021362304,0.4318,0.0917,3,8,NA,NA,3,CA,392,301,0.588,0.412,119775,92101
0.3824,19.459507042,11376,Los Angeles,2,72382,NA,439089409,0.5845070423,0.1759259259,NA,23000,NA,1,Occidental College,https://www.oxy.edu/,34.127124,-118.210908,NA,68355,59400,https://apps.oxy.edu/finaidcalc/,00124900,0,0.0182,10.25,6.40000009536743,19.7600002288818,68.4300003051757,0.1811,0.7608,3,8,NA,1422,3,CA,1934,1952,0.4211,0.5789,120254,90041-3392
0.7982,21.628742515,8226,Los Angeles,2,66930,NA,19785040,0.6167664671,0.2419354839,84,27000,55,1,Otis College of Art and Design,www.otis.edu/,33.956607,-118.416615,NA,51787,52400,www.otis.edu/otis-net-price-calculator,00125100,0,0,12.6700000762939,7.32000017166137,25.9699993133544,62.2900009155273,0.367,0.1374,3,8,NA,1237,3,CA,1153,1191,0.3031,0.6969,120403,90045-3505
0.3997,22.495145631,5666,Fullerton,2,44331,NA,7511781,0.5436893204,0.3863134658,637,23000,519,1,Hope International University,www.hiu.edu/,33.87616,-117.88573,NA,43659,40700,www.hiu.edu/undergrad/finaid/,00125200,0,0,8.30000019073486,4.96999979019165,27.4400005340576,68.0599975585937,0.4855,0.1632,3,8,48,1090,3,CA,705,619,0.4443,0.5557,120537,92831-3199
0.1304,34.693415638,6109,Pasadena,2,NA,NA,9869139,0.9341563786,0.5784883721,967,29105,696,1,Pacific Oaks College,https://www.pacificoaks.edu/,34.153382,-118.151323,NA,54409,43100,https://www.pacificoaks.edu/admissions/cost-financial-aid/financial-aid-services/,00125500,0,0,9.06999969482422,8.67000007629394,38.2200012207031,56.2299995422363,0.5907,0.1121,3,8,NA,NA,3,CA,687,479,0.0898,0.9102,120768,91103
0.5773,21.49078727,6281,Angwin,2,45003,NA,30090821,0.6164154104,0.2572463768,30,27500,4,1,Pacific Union College,https://www.puc.edu/,38.570585,-122.440308,NA,67209,61700,https://puc.studentaidcalculator.com/survey.aspx,00125800,0.0034,0,9.05000019073486,4.55000019073486,19.8600006103515,70.2900009155273,0.399,0.9452,3,8,95,NA,3,CA,1198,799,0.3742,0.6258,120865,94508-9707
0.793,20.865177196,11095,Stockton,2,57004,NA,455800448,0.5901386749,0.350177305,2965,19500,2760,1,University of the Pacific,www.pacific.edu/,37.981424,-121.312301,NA,80965,84200,https://pacific.studentaidcalculator.com/survey.aspx,00132900,0.0755,0.018,13.8000001907348,5.59000015258789,20.1000003814697,64.0699996948242,0.372,0.4977,3,8,NA,1265,3,CA,3731,3269,0.4745,0.5255,120883,95211-0197
0.5271,20.930761622,12961,Malibu,2,77912,NA,908307000,0.587537092,0.1761658031,8381,23510,6738,1,Pepperdine University,www.pepperdine.edu/,34.037786,-118.707077,NA,78224,77600,https://seaver.pepperdine.edu/admission/financial-aid/undergraduate/npc,01014900,0,0.0166,7.88000011444091,5.73999977111816,17.25,73.7399978637695,0.1856,0.4575,3,8,74,1342,3,CA,3855,3706,0.4234,0.5766,121150,90263
0.1831,20.453703704,11766,Claremont,2,58504,NA,144435157,0.5833333333,0.23,NA,16750,NA,1,Pitzer College,https://www.pitzer.edu/,34.104107,-117.706675,NA,64269,51500,https://npc.collegeboard.org/app/pitzer,00117200,0,0.0585,9.60999965667724,8.60999965667724,27.8400001525878,62.8499984741211,0.1399,0.9899,3,8,NA,NA,3,CA,1016,1168,0.4135,0.5865,121257,91711-6101
0.8366,23.331598513,10559,San Diego,2,52834,NA,61666559,0.6855018587,0.2931174089,1908,22990,1271,1,Point Loma Nazarene University,www.pointloma.edu/,32.718391,-117.250265,NA,64114,54400,www.pointloma.edu/NPC,00126200,0.0064,0.0032,7.09000015258789,3.95000004768371,21.9300003051757,72.9100036621093,0.2646,1,3,8,59,1256,3,CA,3467,3170,0.3429,0.6571,121309,92106-2899
0.0664,19.430188679,13749,Claremont,2,70094,NA,2254547000,0.5018867925,0.2991803279,NA,11782,NA,1,Pomona College,www.pomona.edu/,34.099027,-117.714556,NA,74305,77300,https://npc.collegeboard.org/student/app/pomona,00117300,0,0.0548,8.60999965667724,9.01000022888183,18.5100002288818,68.7699966430664,0.2138,0.9417,3,8,NA,1520,3,CA,1566,1747,0.4545,0.5455,121345,91711-6319
NA,23.027400835,11543,Santa Ana,1,11661,NA,11311099,0.5407098121,0.6960576515,NA,6871,NA,1,Santa Ana College,www.sac.edu/,33.759309,-117.887558,NA,40796,39400,https://misweb.cccco.edu/npc/871/npcalc.htm,00128400,0.0051,0.0043,14.0299997329711,2.06999993324279,49.560001373291,53.0499992370605,0.1426,0.2763,1,8,NA,NA,2,CA,34732,20846,0.5997,0.4003,121619,92706-3398
0.8297,23.381469115,10501,Redlands,2,62643,NA,212459592,0.592654424,0.3523459062,2044,26000,1415,1,University of Redlands,www.redlands.edu/,34.064218,-117.163218,NA,68726,57700,www.redlands.edu/npc,00132200,0,0.0138,6.59000015258789,5.90999984741211,25.7600002288818,69.0299987792968,0.3459,0.9771,3,8,NA,1231,3,CA,3061,2596,0.4083,0.5917,121691,92373-0999
NA,22.611238972,10993,Whittier,1,12763,NA,2582861,0.5421940928,0.6826999734,NA,5500,NA,1,Rio Hondo College,www.riohondo.edu/,34.019821,-118.033506,NA,41919,40500,www.riohondo.edu/financial-aid/,00126900,0.0029,0.0066,12.829999923706,2.75,66.9199981689453,44.7200012207031,0.2162,0.3486,2,8,NA,NA,2,CA,23737,13960,0.5617,0.4383,121886,90601-1616
NA,29.558348294,11127,Oakland,2,NA,NA,30654074,0.8061041293,0.3201581028,1526,20825,1320,1,Samuel Merritt University,www.samuelmerritt.edu/,37.82029,-122.266331,NA,129442,111200,NA,00701200,0,0,15.329999923706,7.30000019073486,15.9200000762939,64.2099990844726,0.1726,0.5042,3,8,NA,NA,3,CA,1220,677,0.2068,0.7932,122296,94609
NA,23.961108151,9161,San Diego,1,12900,NA,NA,0.5331202273,0.48779415,NA,4725,NA,1,San Diego Mesa College,www.sdmesa.edu/,32.803825,-117.169165,NA,43015,43100,https://misweb.cccco.edu/npc/072/npcalc.htm,00127500,0.0091,0.0151,11.369999885559,7.05000019073486,23.9599990844726,63.8899993896484,0.1283,0.3574,2,8,NA,NA,2,CA,31596,15217,0.4371,0.5629,122375,92111-4998
0.379,22.602686728,10936,San Diego,1,16194,NA,353237246,0.5842020419,0.4119461928,5426,15000,5163,1,San Diego State University,www.sdsu.edu/,32.77525,-117.071228,NA,61522,55900,https://www2.calstate.edu/attend/paying-for-college/pages/csu-costs.aspx,00115100,0.0795,0.0122,9.72999954223632,5.76000022888183,28.5699996948242,64.870002746582,0.3245,0.5018,3,8,NA,NA,3,CA,33385,30991,0.43120000000000003,0.5688,122409,92182-0001
0.527,20.776548673,12520,San Diego,2,68002,NA,532240000,0.5730088496,0.2486231314,3991,22940,3339,1,University of San Diego,www.sandiego.edu/,32.770816,-117.192073,NA,78234,71100,www.sandiego.edu/admissions/undergraduate/tuition-financial-aid/net-price-calculator.php,01039500,0.0869,0.0116,8.88000011444091,4.3600001335144,18.579999923706,73.25,0.1801,0.4958,3,8,30,NA,3,CA,6069,5601,0.4385,0.5615,122436,92110-2492
0.4645,21.084745763,14965,San Francisco,2,69637,NA,43498000,0.3728813559,NA,170,27000,214,1,San Francisco Conservatory of Music,https://sfcm.edu/,37.775543,-122.420292,NA,30576,30800,https://sfcm.edu/admissions/cost-aid/tuition-fees,00127800,0,0,12.1400003433227,7.07000017166137,12.9200000762939,69.3499984741211,0.1029,1,3,8,NA,NA,3,CA,243,228,0.5921,0.4079,122506,94102-6011
0.9292,22.6117357,10761,San Francisco,1,23297,NA,139667872,0.5840236686,0.4820712432,3893,15371,3475,1,San Francisco State University,www.sfsu.edu/,37.721224,-122.476799,NA,64797,54700,https://financialaid.sfsu.edu/cost-attendance,00115400,0.0395,0.0076,20.5699996948242,8.18000030517578,20.0400009155273,55.6100006103515,0.4258,0.4808,3,8,NA,NA,3,CA,27179,22563,0.4464,0.5536,122597,94132
0.7092,20.968253968,13123,San Francisco,2,72280,NA,419920000,0.6755368814,0.2801204819,5043,23000,4065,1,University of San Francisco,https://www.usfca.edu/,37.776618,-122.450477,NA,83794,74000,https://www.usfca.edu/admission/financial-aid/net-price-calculator,00132500,0,0.0031,17.0200004577636,6.3600001335144,17.2999992370605,62.2799987792968,0.2871,0.4132,3,8,30,1305,3,CA,6624,5937,0.3547,0.6453,122612,94117-1080
NA,26.358832183,6384,Visalia,3,NA,29593,NA,0.7232092339,0.5905030559,NA,10674,NA,1,San Joaquin Valley College-Visalia,www.sjvc.edu/,36.328049,-119.384981,NA,35856,33400,www.sjvc.edu/net-price-calculator,02120700,0,0,4.90000009536743,6.86999988555908,40.2700004577636,58.6500015258789,0.5422,0.3557,1,8,NA,NA,2,CA,3659,2124,0.2608,0.7392,122685,93291-9283
0.7778,24.384244373,7439,Rocklin,2,51573,NA,4026400,0.6221864952,0.3268892794,693,23700,468,1,William Jessup University,www.jessup.edu/,38.819728,-121.292312,NA,52890,45100,www.jessup.edu/financial-aid/undergraduate/#tab_undergrad-net-price-calculator,00128100,0,0.0115,7.44999980926513,3.94000005722045,15.2100000381469,76.120002746582,0.372,0.2379,3,8,79,NA,3,CA,2079,1195,0.4218,0.5782,122728,95765-3707
0.8437,22.704903455,10570,San Jose,1,24198,NA,148747339,0.521976626,0.4904813496,10119,15000,8845,1,San Jose State University,www.sjsu.edu/,37.336569,-121.880621,NA,72635,63800,https://www2.calstate.edu/attend/paying-for-college/Pages/csu-costs.aspx,00115500,0.1314,0.0144,22.2299995422363,5.1100001335144,26.9300003051757,52.4399986267089,0.3689,0.4384,3,8,NA,NA,3,CA,29821,28190,0.5111,0.4889,122755,95192-0001
0.5398,20.242943548,13444,Santa Clara,2,72321,NA,1034167000,0.5423387097,0.1650589496,3558,19162,3023,1,Santa Clara University,www.scu.edu/,37.348362,-121.93784,NA,99012,85300,https://www.scu.edu/financialaid/Net-Price-Calculator.cfm,00132600,0.1528,0.009,16.5300006866455,4.03999996185302,17.4300003051757,65.2799987792968,0.1063,0.6682,3,8,30,1418,3,CA,5844,5887,0.5268,0.4732,122931,95053
NA,22.606413595,11980,Santa Monica,1,11330,NA,13360205,0.5404960943,0.501534573,NA,6450,NA,1,Santa Monica College,https://www.smc.edu/,34.017022,-118.469765,NA,38591,40200,https://misweb.cccco.edu/npc/781/npcalc.htm,00128600,0.001,0.0055,9.13000011444091,17.1100006103515,36.7099990844726,47.4000015258789,0.2195,0.2696,1,8,NA,NA,2,CA,36472,21482,0.4318,0.5682,122977,90405-1628
0.2954,20.087431694,11552,Claremont,2,77774,NA,374862269,0.9453551913,NA,55,13500,21,1,Scripps College,www.scrippscollege.edu/,34.104147,-117.711294,NA,70465,61800,https://npc.collegeboard.org/student/app/scrippscollege,00117400,0.0193,0.0193,9.26000022888183,4.78000020980835,16.4099998474121,73.3600006103515,0.1132,0.7795,3,8,NA,1456,3,CA,1050,1091,0,1,123165,91711-3905
NA,26.273891318,8718,Redding,1,12311,NA,NA,0.5971267958,0.5265336846,NA,14250,NA,1,Shasta College,https://www.shastacollege.edu/,40.625731,-122.317982,NA,36196,34100,https://misweb.cccco.edu/npc/171/npcalc.htm,00128900,0.0046,0.0029,1.86000001430511,0.97000002861022006,7.63999986648559,87.8300018310547,0.336,0.4018,2,8,NA,NA,2,CA,11698,5079,0.355,0.645,123299,96003
0.6695,27.892086331,6659,Redding,2,49249,NA,6140938,0.7032374101,0.3757455268,284,18750,187,1,Simpson University,www.simpsonu.edu/,40.61334,-122.332981,NA,47218,39900,https://simpsonu.studentaidcalculator.com/survey.aspx,00129100,0,0,3.70000004768371,2.42000007629394,12.1300001144409,82.2799987792968,0.4468,1,3,8,34,NA,3,CA,960,805,0.4273,0.5727,123457,96003-8606
NA,23.801409353,11760,San Bruno,1,9827,NA,NA,0.5464445868,0.5275526742,NA,NA,NA,1,Skyline College,skylinecollege.edu/,37.63042,-122.467335,NA,54585,45600,https://misweb.cccco.edu/npc/373/npcalc.htm,00771300,0.0031,0.0247,33.1599998474121,6.07000017166137,20.3500003814697,43.9399986267089,0.1029,0.4364,2,8,NA,NA,2,CA,16278,5664,0.4522,0.5478,123509,94066-1698
0.7008,20.803393214,10671,Moraga,2,61577,NA,178002330,0.629740519,0.2552083333,1366,23691,966,1,Saint Mary's College of California,https://www.stmarys-ca.edu/,37.840731,-122.109031,NA,71724,63600,https://www.stmarys-ca.edu/financial-aid/net-price-calculator,00130200,0.0029,0.0279,12.4399995803833,5.92000007629394,18.4699993133544,66.870002746582,0.2354,0.2231,3,8,30,NA,3,CA,2604,2190,0.4192,0.5808,123554,94575
NA,25.468680586,9616,Fairfield,1,9096,NA,NA,0.6446023989,0.484508547,NA,12000,NA,1,Solano Community College,www.solano.edu/,38.235881,-122.122368,NA,40894,40500,https://misweb.cccco.edu/npc/281/npcalc.htm,00129200,0.0048,0.0108,11.6599998474121,14.4700002670288,18.3600006103515,57.4399986267089,0.1687,0.3994,2,8,NA,NA,2,CA,12806,6942,0.4189,0.5811,123563,94534-3197
0.9373,22.006471495,10494,Rohnert Park,1,16072,NA,41676331,0.6668721109,0.4147465438,897,16705,784,1,Sonoma State University,https://sonoma.edu/,38.340274,-122.677066,NA,62725,53200,https://www.calstate.edu/attend/paying-for-college/Pages/csu-costs.aspx,00115600,0.0123,0.0169,6.3600001335144,3.38000011444091,17.1200008392334,76.5100021362304,0.3366,0.4794,3,8,NA,NA,3,CA,7878,6560,0.3788,0.6212,123572,94928-3609
0.6901,21.842307692,8658,Costa Mesa,2,47967,NA,7613821,0.6605769231,0.3588362069,427,22000,293,1,Vanguard University of Southern California,https://www.vanguard.edu/,33.662686,-117.900911,NA,53394,48800,https://www.vanguard.edu/admissions/net-price-calculator,00129300,0,0.0089,8.3100004196167,3.99000000953674,25.4599990844726,69.8099975585937,0.4568,0.9651,3,8,27,1098,3,CA,2194,1972,0.3154,0.6846,123651,92626
0.6486,24.548387097,12303,Los Angeles,2,64108,NA,4568000,0.4193548387,NA,354,NA,266,1,Southern California Institute of Architecture,www.sciarc.edu/,34.044215,-118.232799,NA,78173,44200,www.sciarc.edu/admissions/financial-aid/cost-to-attend,02075800,0,0,14.8900003433227,6.28000020980835,35.8400001525878,57.1399993896484,0.2249,0.6133,3,8,NA,1295,3,CA,250,252,0.6032,0.3968,123952,90013-1822
0.1251,20.633517495,15683,Los Angeles,2,67045,NA,5914358000,0.5540647198,0.2471783296,30328,18000,28528,1,University of Southern California,www.usc.edu/,34.021281,-118.284169,NA,89884,88800,https://financialaid.usc.edu/npc,00132800,0.0937,0.0323,12.8500003814697,6.34000015258789,23.3700008392334,64.3300018310547,0.2112,0.5866,3,8,NA,1484,3,CA,22052,20619,0.4837,0.5163,123961,90089
0.8314,19.861842105,5863,Santa Paula,2,38380,NA,25165115,0.4868421053,NA,NA,18000,NA,1,Thomas Aquinas College,https://thomasaquinas.edu/,34.429009,-119.087141,NA,47874,45900,https://thomasaquinas.edu/admission/net-price-calculator-financial-aid-calculator,02358000,0,0,3.9300000667572,4.82000017166137,16.6100006103515,79.4599990844726,0.2229,0.9872,3,8,30,1284,3,CA,465,497,0.497,0.503,124292,93060
NA,36.081770984,7197,Minneapolis,3,24240,NA,NA,0.8128064609,0.5081266039,64337,20834,39336,1,Walden University,www.waldenu.edu/,44.98125,-93.265738,NA,48155,62500,www.waldenu.edu/financial-aid/resources/net-price-calculator,02504200,0,0,3.02999997138977,16.579999923706,9.47999954223632,73.3499984741211,0.4484,0.083,3,4,NA,NA,3,MN,13821,7086,0.1596,0.8404,125231,55401
NA,26.148990826,10717,Culver City,1,16442,NA,NA,0.6018348624,0.5406326034,NA,13500,NA,1,West Los Angeles College,www.wlac.edu/,34.004512,-118.386664,NA,36086,37300,https://misweb.cccco.edu/npc/749/npcalc.htm,00859600,0,0.0046,6.51999998092651,34.5999984741211,36.4599990844726,32.4599990844726,0.1666,0.2569,2,8,NA,NA,1,CA,21709,7921,0.391,0.609,125471,90230-3519
0.7897,19.672032193,9633,Santa Barbara,2,65901,NA,78071096,0.6036217304,0.16875,NA,23250,NA,1,Westmont College,www.westmont.edu/,34.450151,-119.662517,NA,63267,58000,www.westmont.edu/a/net-price-calculator.html,00134100,0.019,0.0032,7.21000003814697,2.98000001907348,18.5900001525878,76.4199981689453,0.1729,0.5893,3,8,108,1318,3,CA,1289,1238,0.395,0.605,125727,93108-1089
0.8249,19.681578947,8653,Whittier,2,54415,NA,110492437,0.5736842105,0.3352517986,102,24937,62,1,Whittier College,www.whittier.edu/,33.978773,-118.032299,NA,60015,50900,www.whittier.edu/financialaid/npc,00134200,0.0078,0.0235,11.1300001144409,4.23000001907348,34.0400009155273,62.4700012207031,0.3557,0.7248,3,8,NA,1232,3,CA,1537,1321,0.4375,0.5625,125763,90601
0.6304,22.738095238,7699,Burbank,2,54015,NA,20070284,0.5687830688,0.4097859327,129,26960,99,1,Woodbury University,https://woodbury.edu/,34.208011,-118.341147,NA,58971,52100,https://woodbury.edu/admissions/tuition-and-fees/cost-of-attendance/,00134300,0,0,10.6800003051757,6.86999988555908,36.2900009155273,57.5699996948242,0.498,0.3,3,8,NA,NA,3,CA,1089,937,0.4781,0.5219,125897,91504-1052
0.686,18.569620253,5696,Los Angeles,2,27600,NA,NA,NA,NA,NA,NA,NA,1,Yeshiva Ohr Elchonon Chabad West Coast Talmudical Seminary,www.yoec.edu/,34.085465,-118.346613,NA,33107,NA,https://www.yoec.edu/net-price-calculator,02262400,0,0,8.35999965667724,18.9799995422363,10.1899995803833,64.25,0.6815,NA,3,8,NA,NA,3,CA,208,142,1,0,126076,90046-7660
0.9983,22.287336245,6465,Alamosa,1,23292,NA,62124,0.4890829694,0.4151309408,1635,19500,1303,1,Adams State University,www.adams.edu/,37.473636,-105.879642,NA,38434,38100,https://www.adams.edu/netpricecalculator/,00134500,0,0.0058,1.30999994277954,2.96000003814697,30.6299991607666,76.5400009155273,0.3717,0.4131,3,7,NA,1040,3,CO,2228,1484,0.564,0.436,126182,81101
NA,27.727693733,7861,Littleton,1,16158,NA,NA,0.6350725533,0.3844566713,NA,11884,NA,1,Arapahoe Community College,www.arapahoe.edu/,39.607505,-105.018631,NA,46421,40700,www.arapahoe.edu/netpricecalculator/npcalc.htm,00134600,0,0,2.56999993324279,3.09999990463256,12.4499998092651,86.120002746582,0.1022,0.2203,2,7,NA,NA,2,CO,16340,5274,0.394,0.606,126289,80160-9002
0.7205,24.234349593,10909,Denver,1,22842,NA,NA,0.5792682927,0.3794204883,11762,20500,9978,1,University of Colorado Denver/Anschutz Medical Campus,www.ucdenver.edu/,39.745149,-104.837722,NA,60077,71200,www.ucdenver.edu/student-services/resources/CostsAndFinancing/FASO/Learn/Pages/Net-Price-Calculator.aspx,00450800,0.0674,0.0173,3.07999992370605,4.94000005722045,15.2799997329711,81.620002746582,0.2564,0.6535,3,7,NA,1156,3,CO,18670,11042,0.4348,0.5652,126562,80217-3364
0.9527,23.317987152,8428,Colorado Springs,1,22367,NA,NA,0.5588865096,0.3134053805,2645,20000,2029,1,University of Colorado Colorado Springs,https://www.uccs.edu/,38.892735,-104.800296,NA,51355,49300,https://ir.uccs.edu/institutionaldata/net-price-calculators,00450900,0.0683,0.0121,2.4300000667572,4.51000022888183,11.3800001144409,84.1800003051757,0.2781,0.5998,3,7,NA,NA,3,CO,13310,9634,0.4569,0.5431,126580,80918
0.7958,20.481829574,12044,Boulder,1,31442,NA,NA,0.4815162907,0.2035731847,8417,19500,8114,1,University of Colorado Boulder,www.colorado.edu/,40.008781,-105.270823,NA,65273,59700,ofa.colorado.edu/NetPriceCalculator/,00137000,0.1289,0.0271,3.38000011444091,2.98000001907348,10.6400003433227,86.1600036621093,0.153,0.747,3,7,NA,1292,3,CO,33510,30414,0.5484,0.4516,126614,80309-0017
NA,33.999248873,6612,Lakewood,2,48330,NA,4874636,0.7275913871,0.4485098849,1698,28312,1284,1,Colorado Christian University,https://www.ccu.edu/,39.71388,-105.09456,NA,48890,44600,https://www.ccu.edu/finaid/calculator/,00940100,0.001,0,2.31999993324279,3.40000009536743,12.2600002288818,85.6299972534179,0.3222,0.1849,3,7,88,NA,3,CO,12440,4995,0.2905,0.7095,126669,80226
0.1425,19.440729483,11189,Colorado Springs,2,77875,NA,768785461,0.6200607903,0.1757188498,31,18257,25,1,Colorado College,www.coloradocollege.edu/,38.84886,-104.822697,NA,61590,49900,https://www.shoppingsheet.com/shopping/landing/126678,00134700,0,0.0309,3.65000009536743,4.63999986648559,13.1700000762939,82.3000030517578,0.1378,0.8529,3,7,NA,NA,3,CO,2123,2235,0.4345,0.5655,126678,80903
NA,24.978518519,8567,Glenwood Springs,1,12281,NA,16281336,0.5096296296,0.374796748,NA,9000,NA,1,Colorado Mountain College,coloradomtn.edu/,39.54636,-107.324441,NA,40761,37100,coloradomtn.edu/tuition-costs/net-price-calculator/,00450600,0,0,1.46000003814697,1.94000005722045,10.6400003433227,89,0.1246,0.2578,1,7,NA,NA,1,CO,7955,2740,0.4055,0.5945,126711,81601-0233
0.5688,20.823731728,12648,Golden,1,36050,NA,255678903,0.2837489252,0.1544642857,1802,23000,1700,1,Colorado School of Mines,www.mines.edu/,39.751443,-105.223364,NA,95887,95600,ir.mines.edu/net-price-calculator/,00134800,0.8114,0.0356,2.32999992370605,2.86999988555908,12.1499996185302,86.4499969482422,0.1377,0.6862,3,7,NA,1399,3,CO,5479,5440,0.6842,0.3158,126775,80401
0.8964,21.382301548,10534,Fort Collins,1,27955,NA,410081225,0.5496754868,0.2421371233,9168,20000,7632,1,Colorado State University-Fort Collins,colostate.edu/,40.574805,-105.080732,NA,58388,53400,admissions.colostate.edu/cost-financial-aid/net-price-calculator/,00135000,0.0876,0.0119,2.46000003814697,2.58999991416931,11.1099996566772,87.0299987792968,0.2128,0.7261,3,7,NA,1205,3,CO,27458,24344,0.4582,0.5418,126818,80523-0100
NA,33.431424388,7323,Colorado Springs,3,23662,NA,NA,0.6500040674,0.5458768873,5448,29832,2855,1,Colorado Technical University-Colorado Springs,www.coloradotech.edu/Colorado-Springs,38.895069,-104.85716,NA,36791,51300,coloradotech.studentaidcalculator.com/,01014800,0.001,0,2.63000011444091,13.3000001907348,10.4300003051757,75.8799972534179,0.6699,NA,3,7,NA,NA,3,CO,45026,21009,0.3361,0.6639,126827,80907-3812
NA,25.993571716,6816,Denver,1,18370,NA,NA,0.5895942145,0.4940652819,NA,12495,NA,1,Community College of Denver,www.ccd.edu/,39.741413,-105.001044,NA,38578,36400,ccd.edu/cost_calculator/,00954200,0,0,2.94000005722045,10.1499996185302,25.6599998474121,70.1100006103515,0.3349,0.3017,2,7,NA,NA,2,CO,10072,5050,0.3586,0.6414,126942,80204-2026
0.6363,20.264305177,11193,Denver,2,71341,NA,772073079,0.6021798365,0.1903064861,10408,21844,8263,1,University of Denver,www.du.edu/,39.678005,-104.963259,NA,68764,65400,https://www.du.edu/financialaid/undergraduate/calculator/,00137100,0.0462,0.0171,3.40000009536743,4.23000001907348,12.2100000381469,83.6500015258789,0.1562,0.503,3,7,NA,1324,3,CO,6084,5771,0.4493,0.5507,127060,80208
0.9275,21.814338235,7218,Durango,1,23428,NA,10648269,0.5287990196,0.3085036256,129,18389,118,1,Fort Lewis College,fortlewis.edu/,37.275939,-107.867422,NA,41422,39400,www.fortlewis.edu/rnlnetprice,00135300,0.039,0.0081,1.39999997615814,1.49000000953674,10.1599998474121,74.6800003051757,0.3625,0.7481,3,7,NA,1057,3,CO,3770,3260,0.461,0.539,127185,81301-3999
NA,26.032059943,7128,Westminster,1,16915,NA,819444,0.5958727429,0.4115857874,NA,12251,NA,1,Front Range Community College,https://www.frontrange.edu/,39.901452,-105.038068,NA,44499,40600,https://www.frontrange.edu/npc/,00793300,0,0,2.42000007629394,1.38999998569488,13.8400001525878,86.9199981689453,0.1933,1,1,7,NA,NA,1,CO,28017,11436,0.4135,0.5865,127200,80031
0.8024,22.303197884,7164,Grand Junction,1,22323,NA,37213187,0.5292137533,0.3937549616,228,22000,195,1,Colorado Mesa University,www.coloradomesa.edu/,39.080643,-108.553275,NA,43389,42300,https://www.coloradomesa.edu/financial-aid/resources/financial-aid-calculator.html,00135800,0,0.0055,1.35000002384185,1.20000004768371,11.4799995422363,89.370002746582,0.3096,0.5652,3,7,NA,1088,3,CO,10020,7904,0.4588,0.5412,127556,81501-3122
0.8882,25.353740664,7336,Denver,1,21062,NA,18056150,0.5682625199,0.4046665746,1270,21500,1163,1,Metropolitan State University of Denver,www.msudenver.edu/,39.744202,-105.00504,NA,49932,44200,www.msudenver.edu/financial-aid/cost-of-attendance-coa/,00136000,0.0053,0.0146,2.96000003814697,5.48999977111816,17.1399993896484,80.2300033569336,0.3245,1,3,7,NA,1037,3,CO,22222,15625,0.4474,0.5526,127565,80217-3362
NA,27.539112051,6861,Fort  Morgan,1,15874,NA,6380823,0.6871035941,0.4961439589,NA,8501,NA,1,Morgan Community College,https://www.morgancc.edu/,40.258792,-103.771822,NA,37779,34000,https://www.morgancc.edu/npc,00998100,0,0,0.37999999523162,1.20000004768371,21.7900009155273,84.3000030517578,0.4041,0.9512,1,7,NA,NA,1,CO,1736,614,0.3208,0.6792,127617,80701
1,24.546938776,6394,Boulder,2,52296,NA,5426787,0.6612244898,0.1948051948,618,24712,639,1,Naropa University,https://www.naropa.edu/,40.014235,-105.266987,NA,24187,27800,https://www.naropa.edu/admissions-aid/costs-aid/undergraduate-costs-aid/price-calculator/,02117500,0,0,3.73000001907348,5.92000007629394,10.3599996566772,82.4100036621093,0.5125,0.2857,3,7,NA,NA,3,CO,379,317,0.265,0.735,127653,80302-6697
NA,35.267676768,4725,Colorado Springs,2,NA,NA,3706819,0.4595959596,0.5147928994,NA,34787,NA,1,Nazarene Bible College,www.nbc.edu/,38.944824,-104.803251,NA,41509,34400,www.nbc.edu/core/includes/net-price-calculator/npcalc.htm,01300700,0,0,2.16000008583068,7.26000022888183,8.97999954223632,82.8399963378906,0.1694,1,3,7,59,NA,3,CO,1038,347,0.4784,0.5216,127714,80920
0.9113,21.62580338,7865,Greeley,1,24783,NA,88632449,0.6510354677,0.35173132,4126,20470,2991,1,University of Northern Colorado,https://www.unco.edu/,40.410855,-104.692777,NA,48942,47100,https://www.unco.edu/financial-aid/resources/net-price-calculator.aspx,00134900,0.0066,0.0127,2.54999995231628,2.54999995231628,14.2600002288818,84.9499969482422,0.2615,0.5636,3,7,NA,1104,3,CO,9692,6683,0.3238,0.6762,127741,80639
NA,26.822281521,6753,Colorado Springs,1,17277,NA,5313531,0.5845230153,0.4259485924,NA,9000,NA,1,Pikes Peak State College,https://www.pikespeak.edu/,38.764287,-104.787261,NA,38217,35700,https://www.pikespeak.edu/costs-scholarships-aid/costs/tuition-calculator.php,00889600,0,0,2.50999999046325,7.11999988555908,12.3900003433227,79.9599990844726,0.3198,0.9429,1,7,NA,NA,1,CO,15915,9213,0.3903,0.6097,127820,80906-5498
NA,28.238111413,6668,Pueblo,1,18867,NA,NA,0.6294157609,0.4738336714,NA,10000,NA,1,Pueblo Community College,www.pueblocc.edu/,38.262124,-104.636258,NA,33981,31900,www.pueblocc.edu/NetPriceCalculator/index.htm,02116300,0,0,0.70999997854232,2.50999999046325,30.3799991607666,81.1800003051757,0.3646,1,1,7,NA,NA,1,CO,7844,3291,0.309,0.691,127884,81004-1499
NA,27.207484028,6899,Lakewood,1,17558,NA,NA,0.5558259811,0.4531568228,98,9500,97,1,Red Rocks Community College,www.rrcc.edu/,39.720277,-105.150094,NA,44411,43300,https://www.rrcc.edu/net_price_calculator/index.html,00954300,0,0,2.39000010490417,2.08999991416931,14.039999961853,86.5800018310547,0.3913,1,1,7,NA,NA,1,CO,9773,4249,0.5036,0.4964,127909,80228-1255
0.8137,27.834658188,7471,Denver,2,51079,NA,67372749,0.6412294648,0.36,4019,25000,2821,1,Regis University,https://www.regis.edu/,39.788175,-105.030756,NA,67164,62700,https://tcc.ruffalonl.com/Regis University/Freshman Students,00136300,0,0.0092,3.19000005722045,5.07999992370605,13.5200004577636,82.2399978637695,0.224,0.4244,3,7,30,1174,3,CO,3752,2616,0.3662,0.6338,127918,80221-1099
NA,25.364431487,4556,Lakewood,3,30569,NA,NA,0.6865889213,0.3349514563,16,31000,12,1,Rocky Mountain College of Art and Design,www.rmcad.edu/,39.74332,-105.069911,NA,40504,36700,www.rmcad.edu/consumer-information,00764900,0,0,2.77999997138977,3.41000008583068,13.8999996185302,84.4700012207031,0.4464,0.2451,3,7,NA,NA,3,CO,2539,1832,0.2402,0.7598,127945,80214
0.9917,23.515789474,6918,Pueblo,1,22493,NA,22712061,0.5299771167,0.4086781029,7036,21500,2182,1,Colorado State University Pueblo,https://www.csupueblo.edu/,38.30859,-104.579033,NA,48674,41600,https://www.csupueblo.edu/student-financial-services/net-price-calculator.html,00136500,0.0448,0.0068,1.62999999523162,3.9300000667572,25.5699996948242,80.3799972534179,0.3567,0.5288,3,7,NA,1046,3,CO,5214,3092,0.4722,0.5278,128106,81001-4901
NA,25.71025641,5335,Trinidad,1,19890,NA,5302938,0.5051282051,0.5574018127,NA,8908,NA,1,Trinidad State College,www.trinidadstate.edu/,37.172059,-104.513451,NA,33577,33200,www.trinidadstate.info/NetPriceCalculator/,00136800,0,0,0.79000002145767,1.9800000190734801,40.5499992370605,75.4400024414062,0.3832,1,1,7,NA,NA,1,CO,2086,1014,0.4389,0.5611,128258,81082
0.1243,NA,10484,USAF Academy,1,NA,NA,96384928,NA,NA,NA,NA,NA,1,United States Air Force Academy,www.usafa.edu/,39.010957,-104.891358,NA,NA,NA,https://www.usafa.edu/,00136900,0.2631,0.0097,NA,NA,NA,NA,NA,0.9855,3,0,NA,1382,NA,CO,4403,4181,0.7144,0.2856,128328,80840-5002
0.9087,20.96287703,6952,Gunnison,1,24456,NA,9009436,0.4164733179,0.2496924969,691,20250,448,1,Western Colorado University,www.western.edu/,38.549936,-106.919132,NA,46955,43400,western.edu/admissions-aid/tuition-costs/net-price-calculator/,00137200,0,0.0238,1.99000000953674,2.96000003814697,11.1800003051757,87.0800018310547,0.1673,0.7598,3,7,NA,1143,3,CO,3938,1722,0.5906,0.4094,128391,81231
0.8173,28.57354759,7903,New Haven,2,51559,NA,25821156,0.694684796,0.5338235294,379,30964,297,1,Albertus Magnus College,https://www.albertus.edu/,41.332519,-72.923848,NA,52250,56000,https://www.albertus.edu/admission-aid/financial-aid/net-price-calculator.php,00137400,0,0.0078,2.70000004768371,16.75,12.0900001525878,71.9499969482422,0.4798,0.4079,3,1,30,NA,3,CT,1340,1023,0.3978,0.6022,128498,06511-1189
0.7314,24.483914209,6803,Bridgeport,2,52363,NA,19446000,0.7091152815,0.424291498,2193,25750,1690,1,University of Bridgeport,www.bridgeport.edu/,41.164741,-73.190166,NA,51396,47100,tcc.noellevitz.com/University of Bridgeport/cost,00141600,0.0553,0.0067,3.32999992370605,23.6700000762939,19.4300003051757,60.2999992370605,0.5532,0.4136,3,1,NA,1040,3,CT,2634,1733,0.2874,0.7126,128744,06604-5620
0.7483,22.070153997,9790,New Britain,1,20520,NA,77490881,0.4913224151,0.3874829932,2641,22300,1905,1,Central Connecticut State University,www2.ccsu.edu/,41.692502,-72.765991,NA,56799,51600,web.ccsu.edu/npcalc/,00137800,0.0337,0.0125,2.22000002861022,8.02000045776367,8.26000022888183,83.5699996948242,0.3649,0.4973,3,1,NA,1067,3,CT,9826,7616,0.5351,0.4649,128771,06050
NA,35.294605809,NA,New Britain,1,16702,NA,2052417,0.7565698479,0.5453100159,116,18683,92,1,Charter Oak State College,https://www.charteroak.edu/,41.688246,-72.767972,NA,57234,43700,https://www.charteroak.edu/netcost,03234300,0,0,2.78999996185302,12.6899995803833,13.3999996185302,74.5199966430664,0.37,0,3,1,NA,NA,3,CT,2196,1472,0.2507,0.7493,128780,06053
0.4095,19.53346856,9524,New London,2,77214,NA,316270000,0.6673427992,0.1404255319,NA,23500,NA,1,Connecticut College,www.conncoll.edu/,41.379833,-72.107321,NA,70044,62900,https://conncoll.studentaidcalculator.com/survey.aspx,00137900,0,0.0213,3.97000002861023,7.5,8.97000026702881,82.0199966430664,0.1623,0.7407,3,1,NA,1416,3,CT,1804,1811,0.4053,0.5947,128902,06320-4196
0.556,20.321323247,12984,Storrs,1,34149,NA,449797309,0.5309655084,0.2664932932,9295,21500,8309,1,University of Connecticut,uconn.edu/,41.809098,-72.249948,NA,76076,66000,financialaid.uconn.edu/pricecalc/,00141700,0.133,0.0377,2.60999989509582,7.17000007629394,7.09999990463257,84.8600006103515,0.2302,0.6721,3,1,NA,1337,3,CT,20207,18362,0.4759,0.5241,129020,06269
NA,29.899585591,6004,East Hartford,2,34927,NA,11565000,0.8310487727,0.5281116712,139,33500,102,1,Goodwin University,www.goodwin.edu/,41.742977,-72.64032,NA,36227,43000,www.goodwin.edu/institutional-effectiveness/npcalc/npcalc.htm,02244900,0,0,2.44000005722045,19.3700008392334,16.4200000762939,65.1399993896484,0.7429,0.3264,2,1,NA,NA,2,CT,5146,2901,0.1527,0.8473,129154,06118
0.732,21.013141162,9372,Willimantic,1,27163,NA,16382515,0.5811784655,0.3446535108,241,24250,174,1,Eastern Connecticut State University,https://www.easternct.edu/,41.721673,-72.218753,NA,52411,49000,https://www.easternct.edu/financial-aid/costs/net-price-calculator.html,00142500,0,0.0217,2.09999990463256,5.55999994277954,6.40999984741211,87.1100006103515,0.3059,0.5644,3,1,NA,NA,3,CT,4813,3767,0.4242,0.5758,129215,06226
0.5581,19.908876669,12205,Fairfield,2,69035,NA,317391000,0.6457187745,0.1654441728,1325,26000,1223,1,Fairfield University,fairfield.edu/,41.157673,-73.255903,NA,95393,80100,npc.collegeboard.org/app/fairfield,00138500,0.0473,0.0168,3.64000010490417,5.23000001907348,6.51000022888183,86.7600021362304,0.0976,1,3,1,30,1315,3,CT,4536,4548,0.4186,0.5814,129242,06824-5195
0.7879,20.24865758,7819,West Hartford,2,59070,NA,176055000,0.5671210244,0.2869217082,2527,27000,1914,1,University of Hartford,www.hartford.edu/,41.798591,-72.715213,NA,63870,51700,https://www.hartford.edu/admission/tuition-fees/tuition-calculator.aspx,00142200,0.1056,0.0053,3.57999992370605,9.64000034332275,8.03999996185302,80.9000015258789,0.2807,0.4469,3,1,NA,1185,3,CT,5526,3915,0.4513,0.5487,129525,06117-1599
NA,28.375,4869,Cromwell,2,19233,NA,NA,0.275,NA,639,12541,417,1,Holy Apostles College and Seminary,www.holyapostles.edu/,41.60682,-72.647853,NA,NA,NA,https://www.holyapostles.edu/static/npc/npcalc.htm,00138900,0,0,NA,NA,NA,NA,0.5826,0.4286,3,1,30,NA,3,CT,357,216,0.4815,0.5185,129534,06416-2005
0.7799,20.620805369,7152,New London,2,48719,NA,8241793,0.4362416107,0.3516483516,NA,25150,NA,1,Mitchell College,https://www.mitchell.edu/,41.328013,-72.09523,NA,36205,34000,https://npc.collegeboard.org/app/mitchell,00139300,0,0,2.42000007629394,7.57000017166137,6.98000001907348,84.2600021362304,0.409,1,3,1,NA,NA,3,CT,630,508,0.5748,0.4252,129774,06320
0.9413,20.310183213,10779,West Haven,2,58684,NA,70289725,0.575202386,0.285648785,2534,27000,2490,1,University of New Haven,www.newhaven.edu/,41.291314,-72.961472,NA,58152,54600,https://www.haven.edu/financial-aid-net-price-calculator,00139700,0.0763,0.0027,2.75999999046325,7.75,7.09999990463257,84.4300003051757,0.2829,0.3447,3,1,NA,1200,3,CT,5400,4970,0.4354,0.5646,129941,06516-1916
0.9623,22.325,5762,Bridgeport,3,23778,NA,NA,NA,NA,NA,NA,1,1,Paier College,www.paier.edu/,41.163451,-73.194727,NA,NA,33900,https://www.paier.edu/net-price-calculator/,00745900,0,0,2.20000004768371,6.21999979019165,8.19999980926513,86.0800018310547,0.6328,0.3038,3,1,NA,NA,3,CT,142,171,0.3392,0.6608,130110,06606
NA,31.805394094,6459,Waterbury,3,30234,NA,NA,0.7255289468,0.5676708303,2023,30157,1058,1,Post University,www.post.edu/,41.535549,-73.081497,NA,40615,46500,https://www.post.edu/financial-aid/net-price-calculator,00140100,0,0.0017,2.42000007629394,14.3400001525878,11.3900003433227,75.0500030517578,0.7084,0.0608,3,1,NA,NA,3,CT,26932,12798,0.2765,0.7235,130183,06723
0.8812,20.070648464,11292,Hamden,2,67592,NA,545134316,0.6232081911,0.1993603412,3833,26000,2919,1,Quinnipiac University,www.qu.edu/,41.418915,-72.894117,NA,81553,67700,https://quinnipiac.studentaidcalculator.com/welcome.aspx,00140200,0.0344,0.0033,3.45000004768371,4.75,5.73999977111816,87.8000030517578,0.1533,0.3769,3,1,NA,NA,3,CT,7420,6243,0.3753,0.6247,130226,06518
0.6612,20.50951087,9703,Fairfield,2,63194,NA,189836570,0.6625905797,0.22906641,3671,25000,3024,1,Sacred Heart University,https://www.sacredheart.edu/,41.220893,-73.243332,NA,74642,61800,https://www.sacredheart.edu/admissions--aid/financial-assistance/full-time-undergraduates/net-price-calculator/,00140300,0.0014,0.0036,3.28999996185302,6.86999988555908,8.27000045776367,84.4899978637695,0.1652,0.3349,3,1,30,NA,3,CT,6996,6699,0.3262,0.6738,130253,06825-1000
0.7825,23.075046904,8783,West Hartford,2,52626,NA,35442000,0.9681050657,0.4221748401,1700,27000,1226,1,University of Saint Joseph,https://www.usj.edu/,41.781041,-72.72965,NA,54455,52900,https://www.usj.edu/admissions-financial-aid/tuition-and-financial-aid/net-price-calculator/,00140900,0,0.0099,2.21000003814697,10.1800003051757,8.98999977111816,80.5599975585937,0.3831,0.9493,3,1,30,1109,3,CT,984,895,0.2313,0.7687,130314,06117
0.8293,21.450685654,9606,New Haven,1,25602,NA,31171882,0.6305379747,0.390459364,2322,22250,1988,1,Southern Connecticut State University,www.southernct.edu/,41.333225,-72.947897,NA,55682,48100,go.southernct.edu/netpricecalculator/,00140600,0,0.0105,2.47000002861022,11.119999885559,8.9399995803833,80.1800003051757,0.4163,0.4819,3,1,NA,NA,3,CT,8258,6584,0.3764,0.6236,130493,06515-1355
0.3775,20.398785425,10647,Hartford,2,76698,NA,614772658,0.528340081,0.1784946237,56,23000,31,1,Trinity College,https://www.trincoll.edu/,41.747451,-72.690882,NA,76456,74300,https://npc.collegeboard.org/app/trinitycollege,00141400,0.0388,0.0271,4.32000017166137,11.539999961853,10.4700002670288,76.4300003051757,0.1441,0.8203,3,1,NA,1409,3,CT,2263,2143,0.5049,0.4951,130590,06106-3100
0.1928,NA,11487,New London,1,NA,NA,NA,NA,NA,NA,NA,NA,1,United States Coast Guard Academy,https://www.uscga.edu/,41.375823,-72.101583,NA,NA,NA,https://www.uscga.edu/cost-and-tuition/,00141500,0.49,0,NA,NA,NA,NA,NA,0.8488,3,0,NA,1292,NA,CT,1104,1049,0.5987,0.4013,130624,06320-4195
0.1944,19.821100917,12578,Middletown,2,78735,NA,1130907000,0.5581039755,0.196013289,245,17000,196,1,Wesleyan University,www.wesleyan.edu/,41.554665,-72.657146,NA,72547,63400,https://wesleyan.studentaidcalculator.com/survey.aspx,00142400,0,0.0366,6.05000019073486,10.0200004577636,10.3999996185302,76.3600006103515,0.1711,0.9067,3,1,NA,1426,3,CT,3116,3250,0.4385,0.5615,130697,06459
0.8485,21.581449008,9872,Danbury,1,21432,NA,21357642,0.5140747577,0.3798052281,778,24147,630,1,Western Connecticut State University,https://www.wcsu.edu/,41.400365,-73.444264,NA,57005,50400,https://www.wcsu.edu/admissions/netprice/,00138000,0,0.0039,2.75,6.28999996185302,8.03999996185302,85.370002746582,0.3261,1,3,1,NA,NA,3,CT,5223,4028,0.4762,0.5238,130776,06810-6826
0.0531,19.532147743,20028,New Haven,2,79320,NA,31201686000,0.5006839945,0.25,7655,12975,8031,1,Yale University,https://www.yale.edu/,41.311158,-72.926688,NA,95961,124400,https://admissions.yale.edu/estimate-your-cost,00142600,0.0668,0.0826,6.59999990463257,11.2399997711181,12.4099998474121,73.4300003051757,0.2141,0.7381,3,1,NA,1526,3,CT,5900,6535,0.4857,0.5143,130794,06520
NA,25.809596875,7427,Dover,1,13504,NA,NA,0.6438833868,0.4992614476,NA,10500,NA,1,Delaware Technical Community College-Terry,https://www.dtcc.edu/,39.198371,-75.56012,NA,39097,35900,https://www.dtcc.edu/admissions-financial-aid/tuition-fees/net-price-calculator,01172700,0.0072,0,1.64999997615814,20.6399993896484,3.57999992370605,73.6699981689453,0.3588,0.3593,2,2,NA,NA,2,DE,21012,10837,0.3223,0.6777,130907,19901
0.5884,20.151656556,8176,Dover,1,22912,NA,26148753,0.6654223052,0.3550453817,745,26000,801,1,Delaware State University,www.desu.edu/,39.187173,-75.54053,NA,44793,38400,www.desu.edu/npc,00142800,0.0293,0.0033,2.79999995231628,39.9199981689453,8.01000022888183,50.6500015258789,0.4408,0.6139,3,2,NA,NA,3,DE,4485,4179,0.3312,0.6688,130934,19901
0.7235,19.693425606,13406,Newark,1,26131,NA,1453189476,0.585467128,0.170937108,4973,24572,4586,1,University of Delaware,www.udel.edu/,39.679577,-75.752822,NA,71861,64000,www.udel.edu/apply/undergraduate-admissions/financing-your-degree/net-price-calculator/,00143100,0.0895,0.0083,3.52999997138977,10.5600004196167,4.73999977111816,82.370002746582,0.1497,0.9763,3,2,NA,1260,3,DE,20722,18707,0.4167,0.5833,130943,19716
0.6288,21.212389381,8615,Wilmington,2,34787,NA,159899768,0.587020649,0.4217252396,665,18900,445,1,Goldey-Beacom College,www.gbc.edu/,39.741501,-75.689624,NA,48508,48800,https://www.gbc.edu/admissions/tuition-and-financial-aid/net-price-calculator.html,00142900,0,0,2.25,17.5,5.6100001335144,75.8899993896484,0.3861,0.2697,3,2,NA,NA,3,DE,772,667,0.4708,0.5292,130989,19808
NA,28.968642041,7721,New Castle,2,18455,NA,119991912,0.6885463726,0.4708194738,7382,20000,4797,1,Wilmington University,www.wilmu.edu/,39.682299,-75.586998,NA,51570,46600,https://npc.collegeboard.org/student/app/wilmu,00794800,0,0,1.99000000953674,20.3600006103515,5.05000019073486,73.3799972534179,0.267,0.0635,3,2,NA,NA,3,DE,12529,7626,0.3577,0.6423,131113,19720
0.6409,19.730314157,12387,Washington,2,56065,NA,701308000,0.6609547124,0.156343443,7138,22750,6389,1,American University,www.american.edu/,38.936005,-77.088875,NA,75354,67700,www.american.edu/financialaid/Net-Price-Calculator-Form.cfm,00143400,0,0.0098,4.57999992370605,9.97999954223632,7.07000017166137,80.2600021362304,0.1425,0.5411,3,2,71,1381,3,DC,8448,8158,0.3674,0.6326,131159,20016-8001
0.8601,20.094304388,9587,Washington,2,67366,NA,266907550,0.5798319328,0.1012658228,2578,26000,2130,1,The Catholic University of America,https://www.catholic.edu/,38.933651,-76.997909,NA,76452,60500,https://www.catholic.edu/admission/undergraduate/first-year-students/financial-aid/calculating-aid/net-price-calculator.html,00143700,0.1124,0.0084,4.59000015258789,14.4799995422363,6.98000001907348,75.8499984741211,0.1116,0.5186,3,2,30,NA,3,DC,3152,2891,0.4403,0.5597,131283,20064
NA,26.363914373,9459,Washington,1,22626,NA,53687450,0.6024464832,0.5079113924,638,24872,529,1,University of the District of Columbia,www.udc.edu/,38.943819,-77.066247,NA,43310,39400,www.udc.edu/custom/cost_calculator/npcalc.htm,00144100,0.0714,0.0105,2.13000011444091,73.3099975585937,7.94000005722046,17.75,0.4298,0.3328,3,2,NA,NA,3,DC,4199,2810,0.3733,0.6267,131399,20008
0.6169,22.75984252,9693,Washington,2,39166,NA,194495207,0.5157480315,0.3385650224,498,18000,421,1,Gallaudet University,www.gallaudet.edu/,38.907371,-76.993675,NA,37101,34300,www.gallaudet.edu/merit-based-scholarship-awards/net-price-calculator,00144300,0,0.0287,4.48999977111816,14.0500001907348,11.7600002288818,72.9000015258789,0.4956,1,3,2,NA,941,3,DC,1109,998,0.4569,0.5431,131450,20002-3695
0.4971,21.262289562,15282,Washington,2,62835,NA,1802656000,0.6346801347,0.1606580329,17464,20449,14955,1,George Washington University,https://www.gwu.edu/,38.89923,-77.048363,NA,87548,82400,https://financialaid.gwu.edu/net-price-calculator,00144400,0.0454,0.012,5.51999998092651,9.76000022888183,8.35000038146972,78.7099990844726,0.1424,0.5319,3,2,NA,1419,3,DC,12673,10929,0.3684,0.6316,131469,20052
0.1198,20.123156342,16073,Washington,2,59760,NA,1863711000,0.5899705015,0.1606456572,14730,15500,13337,1,Georgetown University,www.georgetown.edu/,38.908809,-77.073463,NA,101797,125200,finaid.georgetown.edu/consumer-info#Net Price,00144500,0,0.0217,5.90999984741211,11.4399995803833,11.0299997329711,75.3499984741211,0.1301,0.4523,3,2,30,1488,3,DC,8210,7395,0.4276,0.5724,131496,20057-0001
0.3525,20.340277778,10024,Washington,2,49250,NA,712449000,0.7177579365,0.2363936229,3206,24500,3101,1,Howard University,www.howard.edu/,38.922392,-77.018966,NA,59441,54500,https://www2.howard.edu/student-financial-services/net-price-calculator,00144800,0.0594,0.0097,4.48999977111816,42.1699981689453,10.7799997329711,45,0.4175,0.7226,3,2,NA,1181,3,DC,8427,8902,0.2783,0.7217,131520,20059
NA,33.360801106,776,Washington,3,NA,NA,NA,0.7508344853,0.5372940338,155,40621,78,1,Strayer University-District of Columbia,www.strayer.edu/campus-locations/district-columbia/washington,38.904881,-77.034133,NA,42990,53500,https://strayer.aidcalc.cloud/netprice.htm,00145900,0,0,3.07999992370605,32.1500015258789,5.88000011444091,59.6699981689453,0.5667,0.2381,3,2,NA,NA,3,DC,865,368,0.2418,0.7582,131803,20005
0.9729,24.540256709,7675,Washington,2,32102,NA,30658294,0.9789964994,0.5321821036,506,28250,421,1,Trinity Washington University,www.trinitydc.edu/,38.927398,-77.004261,NA,46296,43100,www.trinitydc.edu/enrollment/net-price-calculator/,00146000,0,0.0073,2.96000003814697,63.4199981689453,8.64999961853027,26.2999992370605,0.5651,0.2099,3,2,30,NA,3,DC,1691,1383,0.0202,0.9798,131876,20017-1094
1,26.005376344,4762,Graceville,2,19623,NA,8046044,0.4731182796,0.3414634146,36,23590,24,1,The Baptist College of Florida,www.baptistcollege.edu/,30.962708,-85.503931,NA,38772,36200,www.baptistcollege.edu/net-price-calculator,02159600,0,0,0.99000000953674006,13.1599998474121,5.26999998092651,81.9700012207031,0.4026,1,3,5,75,1015,3,FL,451,252,0.5119,0.4881,132408,32440
0.6369,26.625468165,8858,Miami,2,41754,NA,45993199,0.6736222579,0.4355670103,4902,26997,4005,1,Barry University,www.barry.edu/,25.878908,-80.198925,NA,54203,50900,www.barry.edu/netpricecalculator/,00146600,0,0,2.24000000953674,21.7600002288818,29.5699996948242,68.2799987792968,0.5138,0.5009,3,5,30,NA,3,FL,4228,2932,0.3353,0.6647,132471,33161-6695
0.9984,20.22826087,6761,Daytona Beach,2,23794,NA,28200894,0.60409699,0.4223088164,127,31000,111,1,Bethune-Cookman University,www.cookman.edu/,29.207195,-81.032946,NA,38237,32300,nces.ed.gov/ipeds/netpricecalculator/,00146700,0,0.0039,1.94000005722045,39.9900016784668,12.3900003433227,51.4599990844726,0.7272,1,3,5,71,910,3,FL,2913,2513,0.3764,0.6236,132602,32114-3099
0.8301,21.295352324,5915,Boca Raton,2,57262,NA,30904708,0.5967016492,0.270096463,1004,17940,745,1,Lynn University,www.lynn.edu/,26.385985,-80.122806,NA,45722,46500,https://lynn.aidcalculator.com/calculator,00150500,0,0,3.22000002861023,10.6099996566772,11.2799997329711,80.75,0.2554,0.4788,3,5,NA,1121,3,FL,2642,2632,0.5004,0.4996,132657,33431-5598
NA,25.451760325,6170,Melbourne,1,10279,NA,17780233,0.5937711578,0.4004611837,NA,12250,NA,1,Eastern Florida State College,www.easternflorida.edu/,28.170002,-80.670781,NA,36306,34000,www.easternflorida.edu/admissions/financial-aid-scholarships/financial-aid-information/npcalc-iframe.cfm,00147000,0,0,1.5900000333786,9.88000011444091,5.71000003814697,84.6600036621093,0.3098,0.3525,2,5,NA,NA,2,FL,18757,9855,0.3931,0.6069,132693,32935
NA,24.374647017,6738,Fort Lauderdale,1,22039,NA,42727372,0.5896134839,0.4873697419,NA,7500,NA,1,Broward College,www.broward.edu/,26.119422,-80.14183,NA,39780,38700,www.broward.edu/admissions/tuition-costs/net-price-calculator.html,00150000,0,0,2.30999994277954,27.2000007629394,20.7099990844726,62.9599990844726,0.3729,0.331,2,5,NA,NA,2,FL,49619,25570,0.4031,0.5969,132709,33301
1,26.48,5841,Miami,2,34121,NA,NA,0.8042105263,0.2505800464,858,5500,659,1,Albizu University-Miami,https://www.albizu.edu/,25.794178,-80.356315,NA,41451,34000,https://www.albizu.edu/wp-content/uploads/NetPriceCalculator/miami/npcalc.htm,01072401,0,0,1.12999999523162,10.9200000762939,75.9400024414062,78.5599975585937,0.5548,0.9744,3,5,NA,NA,3,FL,258,178,0.1685,0.8315,132842,33172-2209
NA,24.306709265,6100,Ocala,1,14543,NA,75164444,0.6081905315,0.4876564085,NA,13000,NA,1,College of Central Florida,www.cf.edu/,29.166079,-82.175692,NA,35808,34900,https://www.cf.edu/NPC,00147100,0,0,0.87000000476837,10.9399995803833,6.23999977111816,84.5500030517578,0.3885,0.4628,1,5,NA,NA,2,FL,8789,4334,0.3556,0.6444,132851,34474
0.4207,22.166347992,5581,Kissimmee,2,26222,NA,1583206,0.4321223709,0.2545454545,NA,21500,NA,1,Johnson University Florida,johnsonu.edu/,28.302547,-81.363053,NA,38008,31700,johnsonu.edu/admission/tuition/#net-price-calc,00349503,0,0,0.98000001907348,6.34999990463257,2.36999988555908,90.1100006103515,0.6438,1,3,5,48,959,3,FL,189,148,0.5946,0.4054,132879,34744
